,business_id,name,address,city,state,postal_code,latitude,longitude,stars,review_count,category,WiFi,RestaurantsTakeOut,Alcohol,BikeParking,RestaurantsReservations,OutdoorSeating,RestaurantsDelivery,RestaurantsPriceRange2,RestaurantsAttire,NoiseLevel,HasTV,RestaurantsGoodForGroups,GoodForKids
0,C9oCPomVP0mtKa8z99E3gg,Bakery Gateau,"865 York Mills Road, Unit 1",Toronto,ON,M3B 1Y6,43.754093100000006,-79.3495479,4.5,8,"Bakeries, Food",,True,,True,,,False,2.0,,,,,
1,NDuUMJfrWk52RA-H-OtrpA,Bolt Fresh Bar,1170 Queen Street W,Toronto,ON,M6J 1J5,43.6428886,-79.4254291,3.0,57,"Juice Bars & Smoothies, Food, Restaurants, Fast Food, Vegan",u'no',True,,True,,,,2.0,,,,,
2,SP_YXIEwkFPPl_9anCYmpQ,The Steady Cafe & Bar,1051 Bloor Street W,Toronto,ON,M6H 1M4,43.6604937,-79.432099,3.5,29,"Restaurants, Nightlife, Breakfast & Brunch, Vegan, Food, Tapas Bars, Bars, Southern, Coffee & Tea",u'free',False,u'full_bar',True,True,False,False,2.0,u'casual',u'average',False,True,False
3,mlHC2XcU9Bows6cnYEmRgg,Mad Crush Wine Bar,582 College Street,Toronto,ON,M6G 1B3,43.6554201,-79.41335179999999,4.0,9,"Restaurants, Breakfast & Brunch, Bars, Modern European, Nightlife, Wine Bars",u'free',True,u'full_bar',True,True,True,False,3.0,'dressy',,False,True,False
4,RFbMVekR8lU9tPJ8sWrwHg,Tavolino,619 Mount Pleasant Road,Toronto,ON,M4S 2M5,43.7042291,-79.38822990000001,4.0,18,"Italian, Restaurants",,,u'full_bar',True,True,False,,2.0,u'casual',u'quiet',False,True,False
5,NPHZkn1e-tSJAbo8Zm9rYw,Burrito Bandidos,1614 Queen Street E,Toronto,ON,M4L 1G4,43.666181200000004,-79.3164682,3.5,43,"Tex-Mex, Mexican, Restaurants",u'no',True,u'none',True,False,False,False,2.0,u'casual',u'average',False,True,True
6,jtlAfuINMCYVFpjwMgy2jw,Medium Rare,5241 Dundas Street W,Toronto,ON,M9B 1A5,43.63887929999999,-79.53763190000001,4.0,22,"Grocery, Restaurants, Steakhouses, Butcher, Food",,True,,False,,,,3.0,u'casual',u'quiet',,,
7,gyFYZV4b_9TxG1ulQNi0Ig,Paramount Fine Foods,165 East Liberty Street,Toronto,ON,M6K 3K4,43.638442299999994,-79.4172366,2.0,40,"Middle Eastern, Restaurants, Salad, Breakfast & Brunch",u'free',True,u'none',True,True,True,True,2.0,'casual',u'average',True,True,True
8,OezwOIJ0_62Mj8MLdkGRAw,Aroma Espresso Bar,105 The Pond Road,Toronto,ON,M3J 2S5,43.7698543376,-79.50193288279999,3.5,6,"Sandwiches, Cafes, Food, Restaurants, Coffee & Tea",'free',True,,,,True,,,,,,True,
9,aql8K6zVoJDGRJ3P-IgtpQ,Ume Fashion Sushi,1732 Kingston Road,Toronto,ON,M1N 1S8,43.6927912,-79.26262990000001,4.5,25,"Sushi Bars, Restaurants",u'no',True,'beer_and_wine',True,True,False,True,2.0,'casual','quiet',False,True,True
10,Kxbn0XLcCgQqmkdIkhuOeQ,Not Your Mother,"1346 Queen Street, Unit 2",Toronto,ON,M6K 1L4,43.6417075708,-79.432192035,4.0,8,"Desserts, Ice Cream & Frozen Yogurt, Food, Restaurants, Vegan",,True,,,,,,1.0,,,,,
11,1HRSElW1HgBiTtSNrhjMeA,Fine Asian Bowl,1634 Bayview Ave,Toronto,ON,M4G 3B7,43.706691299999996,-79.37580279999999,2.0,4,"Restaurants, Vietnamese",,,,,,,,,,,,,
12,c35qzLN6ItDpVIoj2uQW4Q,Ravi Soups,322 Adelaide Street W,Toronto,ON,M5V 1R1,43.647585299999996,-79.3920316,4.5,332,"Soup, Restaurants, Sandwiches",u'free',True,u'beer_and_wine',True,False,True,True,2.0,u'casual',u'average',False,True,True
13,kGal388xLnmCwI4mw2TG8Q,J-C Foodland,270 Wellington Street W,Toronto,ON,M5V 3P5,43.644895,-79.391717,3.0,7,"Food, Grocery, Convenience Stores",,False,,True,,,,2.0,,,,,
14,SvUvVEr9cTjS-PJQ9MuckQ,Caffeine,1448 Lawrence Avenue E,Toronto,ON,M4A 2S6,43.742554999999996,-79.314252,4.5,30,"Restaurants, Breakfast & Brunch, Sandwiches, Food, Coffee & Tea",u'free',True,u'none',True,False,False,False,1.0,u'casual',u'average',False,True,True
15,RZ48zp2J2SWUy-lZ4PHZrw,Sanagan's Meat Locker,1513 Gerrard Street E,Toronto,ON,M4L 2A4,43.672721100000004,-79.3195719,5.0,3,"Meat Shops, Food, Specialty Food",,True,,,,,,2.0,,,,,
16,IgQ8lSds3AgLFQsYsshUHQ,Gourmet Gringos,1921 Queen Street E,Toronto,ON,M4L 1H3,43.669043862200006,-79.3044535463,3.5,29,"Restaurants, Mexican, Ethnic Food, Specialty Food, Food",'no',True,'none',False,False,False,True,2.0,'casual',u'average',True,True,True
17,SJBzyJDCR_f6dx5tpYAABA,Kibo Sushi House,2945 Lake Shore Boulevard,Toronto,ON,M8V 1J5,43.600522600000005,-79.5055159,4.0,15,"Sushi Bars, Japanese, Restaurants",'no',True,'none',False,True,False,True,2.0,,'average',True,,
18,111d13yLgIdqvpZekgVnbQ,Pallucci,523 Mount Pleasant Road,Toronto,ON,M4S 2M4,43.7021058,-79.38747109999998,3.0,5,"Restaurants, Caterers, Italian, Event Planning & Services",u'no',,u'full_bar',,True,True,False,,u'casual',u'quiet',,True,False
19,6aOnrzf15RMqFNOQ-_ElIA,COCO Crafted Organic Chocolate,365 Jane Street,Toronto,ON,M6S 2E2,43.657599499999996,-79.48768340000001,5.0,15,"Chocolatiers & Shops, Specialty Food, Ice Cream & Frozen Yogurt, Desserts, Food",,True,,True,,,,2.0,,,,,
20,rVBPQdeayMYht4Uv_FOLHg,Gourmet Burger Company,843 Kipling Avenue,Toronto,ON,M8Z 5G9,43.6332914,-79.5317683,3.0,13,"Burgers, Food, Restaurants",'no',True,u'none',,False,False,False,2.0,u'casual',u'average',False,True,True
21,NX88XnZQOVbaSVj1exilLA,Sacred Seed,624 Yonge Street,Toronto,ON,M4Y 1Z8,43.666219399999996,-79.38525390000001,2.0,3,"Specialty Food, Food, Herbs & Spices",,,,,,,,4.0,,,,,
22,AXq8uPxqBP-c5PCrnba-4A,Mexico Lindo,971 O'Connor Drive,Toronto,ON,M4K 1T1,43.7083547605,-79.3101267401,4.5,6,"Mexican, Restaurants",,True,,,False,,,,u'casual',,,True,True
23,iyPtSR0s6EkvaQFbdJ_jVA,Pearl King,291 King Street W,Toronto,ON,M5V 1J5,43.6464782,-79.3900189,2.5,72,"Dim Sum, Chinese, Tapas/Small Plates, Restaurants",u'free',True,'full_bar',True,True,True,False,2.0,'casual','average',True,True,True
24,Tuu_B0QGo7SQUuXW_Nd4hg,Pizza Pan,1822 Saint Clair Avenue W,Toronto,ON,M6N 1J5,43.673828799999995,-79.4627354,3.0,9,"Middle Eastern, Pizza, Sandwiches, Chicken Wings, Restaurants",u'no',True,,,False,,True,2.0,,u'quiet',,False,True
25,Ykn6eHLY8vPHuUH7UQrvxw,La Barista Café,22 St Clair Avenue E,Toronto,ON,M4T,43.688486,-79.393215,3.0,4,"Food, Bakeries, Coffee & Tea",,True,,,,False,False,1.0,,,,,
26,9MFcLXNi4pbqHsdrH9giZw,LaPaz Batchoy Toronto,360 Wilson Avenue,Toronto,ON,M3H 1S9,43.7367949,-79.43851509999999,3.5,7,"Restaurants, Filipino, Soup, Fast Food",,True,u'none',False,,False,True,2.0,u'casual',u'quiet',,True,True
27,i_0rSAui4zaz4ydVaOZ6bQ,Marcello's Market & Deli,"40 King Street W, Scotia plaza Food Court",Toronto,ON,M5H 1B6,43.649321,-79.378413,3.5,7,"Food, Grocery, Delis, Buffets, Event Planning & Services, Breakfast & Brunch, Restaurants, Caterers",u'no',True,u'none',True,False,False,True,2.0,,,True,,
28,L6R2Op88NkoG1EGxlVvdRQ,Bread & Roses Bakery Cafe,2901 Bayview Avenue,Toronto,ON,M2K 2S3,43.7690784933,-79.3854800239,3.0,23,"Food, Coffee & Tea, Bakeries, Restaurants, Cafes",'free',True,u'none',True,False,False,False,2.0,u'casual',u'average',False,False,True
29,EVC1vn1KQ2uETnTbDWXc5w,Cadillac Jenkins,930 Queen Street W,Toronto,ON,M6J 1G6,43.645041600000006,-79.4161208,4.5,13,"Caribbean, Tapas/Small Plates, Restaurants",,,u'full_bar',,False,,,,'casual',,,True,False
30,43PeF0ERpSIiEbXM6f9N2g,Megas Restaurant,402 Danforth Avenue,Toronto,ON,M4K 1P3,43.6777565,-79.3515772,2.5,47,"Restaurants, Greek, Mediterranean, Caterers, Event Planning & Services",u'free',True,u'full_bar',True,True,True,True,2.0,u'casual',u'average',True,True,True
31,h_ypoQ2rmwX8UGSmohsGiQ,Maman,"1 First Canadian Place, Food Terrace, Upper Level",Toronto,ON,M5X 1C1,43.6489768,-79.382409,3.5,122,"Event Planning & Services, American (Traditional), Bakeries, Cocktail Bars, Caterers, Bars, Coffee & Tea, Food, French, Restaurants, Nightlife",u'free',True,u'full_bar',False,False,True,True,2.0,'casual',u'average',False,True,True
32,kExmc2lS8BhFFlh9sjvuSA,The Standard Pizza & Pasta Bar,667 College Street,Toronto,ON,M6G 1B9,43.6549406,-79.41683979999999,3.0,50,"Restaurants, Pizza, Italian",'free',True,u'full_bar',True,True,True,False,2.0,u'casual',u'average',True,True,True
33,iag4htR8F7FmE9zpz7_GMw,Levetto,940 College Street,Toronto,ON,M6H 1A5,43.6536812,-79.42659040000001,4.0,60,"Salad, Italian, Restaurants, Pizza",u'free',True,u'beer_and_wine',True,False,False,True,2.0,'casual',u'average',False,True,True
34,-jdNqqzF1Dbve04oEd4jww,OK OK Diner,1128 Queen Street E,Toronto,ON,M4M 1K8,43.6623207,-79.3351048,3.0,62,"Restaurants, Breakfast & Brunch, Diners",u'no',True,u'beer_and_wine',True,False,True,False,2.0,u'casual',u'average',False,False,True
35,N-U0o7hIKy3Z6KY_O4RuPg,PICEA997,997 Dupont Street,Toronto,ON,M6H 1Z5,43.6698988,-79.43154859999999,3.0,32,"Sports Bars, Italian, Nightlife, Restaurants, Bars, Pizza",u'free',True,u'full_bar',,True,False,False,2.0,u'casual',u'average',True,True,True
36,q1qjPXe0C2VXTInnWNLudQ,D-Spot Dessert Cafe,1060 The Queensway,Toronto,ON,M8Z 1P7,43.6232196,-79.5173811,4.0,16,"Desserts, Cafes, Food, Ice Cream & Frozen Yogurt, Restaurants, Bubble Tea",,False,,True,,,,2.0,,,,,
37,Iojwvqi475VZ7n27LGfnBw,The Cure,1484 Dundas Street W,Toronto,ON,M6K 1T5,43.6497245738,-79.4315845899,3.5,31,"Sandwiches, Breakfast & Brunch, Nightlife, Cocktail Bars, Food, Bars, Restaurants, American (Traditional), Canadian (New), Diners, Specialty Food, Delis, Meat Shops, Delicatessen",u'no',True,u'full_bar',True,True,False,False,2.0,'casual',u'average',False,True,True
38,4w-q_Wc77JzQZSIehKFTzA,Brockton Haunt,1150 College Street,Toronto,ON,M6H 1B6,43.652360563,-79.4339237061,4.0,25,"Juice Bars & Smoothies, Restaurants, Sandwiches, Food, Cafes, Coffee & Tea",'no',True,u'none',True,False,False,False,1.0,None,,None,False,False
39,q8MUVVuQpfR6v0HBHmAFxw,The Combine Eatery,162 Danforth Avenue,Toronto,ON,M4K 1N2,43.676642,-79.357421,3.5,82,"Canadian (New), Bakeries, Restaurants, Food, Bars, Burgers, Nightlife, Mexican, American (New)",u'no',True,u'full_bar',True,True,True,False,2.0,u'casual',u'average',False,True,True
40,7MssGOl7IeOYCPn6uuSGxw,Bánh Cuon Thanh Trúc,2422 St Clair Ave W,Toronto,ON,M6N 1L2,43.6695111,-79.4824124,3.5,26,"Restaurants, Vietnamese",u'no',True,,False,False,False,,2.0,u'casual',u'quiet',True,True,True
41,nxzyOxgWh5gT_YNbVaBx6A,Nutrition House,120 Lynn Williams Street,Toronto,ON,M6K 3N6,43.639060799999996,-79.4177271,3.5,3,"Food, Specialty Food, Health Markets",,,,,,,,,,,,,
42,gU9EIsUkriQzDM91Sv3CtA,Kimchi House,586 Bloor St W,Toronto,ON,M6G 1K4,43.66495820000001,-79.4127496,4.0,36,"Restaurants, Korean",u'no',True,,True,True,False,False,2.0,'casual',u'average',True,True,True
43,SAYeaclKsoqMavBfHpvV8Q,York Street Cafe,60 York Street,Toronto,ON,M5J 1S8,43.646279299999996,-79.3830074,1.5,8,"Breakfast & Brunch, Restaurants",,False,,,True,,,,'casual',,,True,False
44,8wpfZ3zJJ8LKO-z6C8hX-A,Pennylicks Gourmet Cafe,281 Augusta Ave,Toronto,ON,M5T 2M1,43.6559277,-79.4024678,4.0,6,"Food, Restaurants, Sandwiches, Coffee & Tea, Desserts",,True,u'none',,False,,False,2.0,u'casual',,,False,
45,6T8YFkN7xkGlBfLMqdp28w,Golden Bakeshop,3371 Lake Shore Boulevard W,Toronto,ON,M8W 1N1,43.5960867387,-79.5267761783,5.0,3,"Bakeries, Food",,,,,,,False,1.0,,,,,
46,Z3UBeP5EoKIXIDmEdA3JmQ,Big Tuna Poké Bar,599 Bloor Street W,Toronto,ON,M6G 1K5,43.6646035,-79.41293420000001,3.0,65,"Poke, Asian Fusion, Food, Restaurants, Hawaiian, Japanese",u'no',True,u'beer_and_wine',True,False,False,False,2.0,'casual',u'average',False,False,True
47,l7RCvKqA61Jzm98gaqIhvw,Brass Taps Pizza Pub,934 College St,Toronto,ON,M6H 1A4,43.6537865,-79.4261354,3.5,34,"Pizza, Nightlife, Restaurants, Pubs, Bars",u'free',True,u'full_bar',True,True,True,False,2.0,u'casual','average',True,True,False
48,WOQNQx7SrMalJMXFENitpg,Ravi Soup,1533 Queen Street W,Toronto,ON,M6R 1A7,43.639322311099995,-79.4425679049,4.0,9,"Sandwiches, Soup, Restaurants",,True,,,False,,,1.0,,,,True,True
49,c_FTil8s5PS2l_YJDQAXhA,Hogtown Pub & Oysters,633 College Street W,Toronto,ON,M6G 3A7,43.6548045,-79.41499350000001,4.0,50,"Restaurants, Bars, Seafood, Nightlife, Pubs",u'no',True,u'full_bar',True,True,False,False,2.0,u'casual',u'average',True,True,False
50,9B2kV3k4t72mr-o4Ry_soQ,Athens Pastries,1681 Lakeshore Blvd E,Toronto,ON,M4L 3W6,43.663092453800004,-79.3107140268,3.5,9,"Bakeries, Food, Coffee & Tea",u'no',True,,True,,True,False,1.0,,,,,
51,MrqG_TzPLMRrob--EHNdOw,Margo's,2416 Lakeshore Boulevard,Toronto,ON,M8V 1C4,43.614660707700004,-79.4890733063,4.0,5,"Sandwiches, Poutineries, Restaurants, Cafes",,True,u'none',,False,False,False,2.0,u'casual',u'quiet',False,False,True
52,COExayvsDDJOjWTOFZ7a4A,Panafest,"2708 Jane Street, Unit 5",Toronto,ON,M3L 2E8,43.74203320000001,-79.5143671,3.0,5,"African, Bars, Restaurants, Nightlife",,True,,,,,,,,,,True,False
53,rz_MbxHYHWwZMT-F5fgfUA,Cusina Lounge,288 Wilson Avenue,Toronto,ON,M3H 1S8,43.7372891748,-79.4349258766,2.0,24,"Barbeque, Filipino, Buffets, Fish & Chips, Restaurants",'no',True,,,False,True,False,2.0,u'casual',u'loud',True,True,True
54,Idk-QTyUZq9w0ALh5cyvrw,Pizza Pizza,228 Queen Street W,Toronto,ON,M5V 1Z6,43.6503226,-79.3900762,2.0,12,"Pizza, Restaurants, Italian, Chicken Wings",,True,u'none',,False,,,1.0,,u'loud',True,True,True
55,0txNpCq2YunZSL7jHIiGlA,Lardon Restaurant,390 Roncesvalles Avenue,Toronto,ON,M6R 2M9,43.6508821,-79.45084920000001,4.0,19,"Restaurants, French, Italian",u'no',True,u'full_bar',,True,False,False,3.0,u'casual',u'average',False,True,False
56,qL2LoSauX4IG2KHtQevFUw,Lucky Lin's Restaurant,226 Markham Road,Toronto,ON,M1J 3C2,43.7443362,-79.2194828,3.5,7,"Thai, Restaurants",,True,,,True,False,True,2.0,u'casual',,False,True,True
57,fZ5jJ_TOJHeaRi5UBdRvYw,Soup It Up,20 Bloor Street E,Toronto,ON,M4W 3G7,43.670313,-79.3864459,2.0,6,"Restaurants, American (Traditional)",u'no',True,u'none',,False,False,False,1.0,u'casual',u'loud',False,False,False
58,Ycp3Agr7dt71TZkeKV7jng,Le Gourmand,152 Spadina Avenue,Toronto,ON,M5V 3S6,43.6481229,-79.39664090000001,4.0,214,"Restaurants, Desserts, Sandwiches, Cafes, French, Coffee & Tea, Food, Breakfast & Brunch",u'free',True,u'none',True,False,True,False,2.0,u'casual',u'average',False,True,True
59,n9eudXq_35C0htRLtHZ2XQ,Bathurst Local,322 Bathurst Street,Toronto,ON,M5T 2S3,43.651491799999995,-79.4058339,4.5,13,"Beer, Wine & Spirits, Whiskey Bars, Coffee & Tea, Beer Bar, Breakfast & Brunch, Bars, Cocktail Bars, Food, Cafes, Wine Bars, Restaurants, Local Flavor, Nightlife",,,u'full_bar',True,True,False,,1.0,,u'average',False,True,
60,YH8Bn-7pLR-SFR8MCgQj1w,Jules Cafe Patisserie,617 Mount Pleasant Road,Toronto,ON,M4S 2M5,43.7041655,-79.3882122,3.5,44,"Bakeries, Food, Mediterranean, French, Restaurants",,True,,True,False,,False,3.0,'casual',u'average',False,False,False
61,4FE9FM8uvn9CV76Bxfxogw,T&T Roti Trinidad & Toronto Roti,Market 707,Toronto,ON,,43.652196136499995,-79.4055628113,4.0,9,"Caribbean, Restaurants",u'no',True,u'none',True,False,True,False,1.0,'casual',u'average',,True,True
62,JHlliXHouAUSHLtiiMyUqA,Cool Star,1985 Queen Street E,Toronto,ON,M4L 1J1,43.669759899999995,-79.3001663,4.5,3,"Vietnamese, Restaurants, Ice Cream & Frozen Yogurt, Food",,,,,,,,,,,,,
63,ZK0Q-hn46I8JrRTleg_dYQ,Mai Thai Restaurant & Catering,2364 Yonge Street,Toronto,ON,M4P 2E6,43.708772700000004,-79.3987906,3.0,15,"Restaurants, Asian Fusion, Caterers, Event Planning & Services, Thai, Desserts, Food",u'no',True,,True,True,False,True,2.0,u'casual',u'quiet',False,True,True
64,VcZQXpk6vYAXwemOrC9PTw,Sagano,"2035 Kennedy Road, 14th Floor",Toronto,ON,M1T 3G2,43.776815,-79.28299200000001,3.0,25,"Japanese, Restaurants",u'no',False,u'full_bar',False,True,False,False,3.0,'casual',u'quiet',False,True,True
65,yex6vCCeLKsnWiNW5aGrLA,Cinnabon,"1800 Sheppard Avenue E, Unit 2024A",Toronto,ON,M2J 5A7,43.7778779699,-79.3446541205,4.5,3,"Desserts, Food, Bakeries",,True,,True,,,True,2.0,,,,,
66,uF86ZhygpBEGr3CudNemYA,O.Noir,620 Church St,Toronto,ON,M4Y 2G2,43.6691213,-79.382764,3.5,301,"Canadian (New), American (New), Restaurants",u'no',False,u'full_bar',True,True,False,False,3.0,u'casual',u'average',False,True,False
67,dvbcUnKv2awsIxog7dO4vw,Hong Kong Bistro Cafe,472 Dundas Street W,Toronto,ON,M5T 1G8,43.65344520000001,-79.3968608,4.0,87,"Cafes, Chinese, Restaurants",u'no',True,'beer_and_wine',True,False,False,False,1.0,u'casual',u'average',True,True,True
68,06Agn-DDxhc1A1u935l93Q,Mike's Fish Market,93 Front Street E,Toronto,ON,M5E 1C3,43.6482941062,-79.3714279309,5.0,6,"Specialty Food, Food, Seafood Markets",,,,True,,,,2.0,,,,,
69,fGdUxfeEWp9pn2sAa9rv2w,Roselle,362 King Street E,Toronto,ON,M5A 1K9,43.6535432,-79.3620478,4.5,171,"Food, Coffee & Tea, Bakeries, Ice Cream & Frozen Yogurt, Specialty Food",'no',True,'none',True,,True,False,2.0,,,,,
70,DlFKsdGY7-7c4u7_A-W99Q,Bakery & Kaffee Haus,238 Queen Street W,Toronto,ON,M5V 1Z9,43.650130600000004,-79.3904119,3.5,36,"Coffee & Tea, Internet Cafes, Bakeries, Food",'free',,,True,,False,False,2.0,,,,,
71,7A1rTh8gGbJTyCIcbdb6dg,Rakia Bar,1402B Queen Street E,Toronto,ON,M4L 1C7,43.664755799999995,-79.32429520000001,4.0,16,"Beer, Wine & Spirits, Canadian (New), Restaurants, Lounges, Bars, Modern European, Nightlife, Food",u'free',False,u'full_bar',,True,True,False,3.0,u'dressy',u'loud',False,True,False
72,5Qoq8cif3nMCQUN-urH8YA,The Pickle Barrel,1 Yorkdale Road,Toronto,ON,M6A 2T9,43.724688799999996,-79.4538904,2.5,170,"Restaurants, Cocktail Bars, Canadian (New), Bars, Nightlife, Diners",'free',True,u'full_bar',True,True,False,False,2.0,u'casual',u'average',True,True,True
73,DtzDpAflD41-rI6njywacw,Gino's Pizza & Wing Machine,2387 Yonge Street,Toronto,ON,M4P 2H4,43.7097839401,-79.3988528475,2.0,8,"Restaurants, Food, Pizza",,True,u'none',,False,False,True,1.0,'casual',,True,True,True
74,NoT7u2QNEvsVbH9MIzAzlw,Si Lom Thai Bistro,534 Church Street,Toronto,ON,M4Y,43.6650073,-79.38081109999999,4.0,106,"Thai, Restaurants, Vegan",u'no',True,u'full_bar',True,False,True,False,2.0,'casual',u'average',False,True,True
75,yW9IIc1cBIlFlbOG_1pp_Q,La Salumeria,2021 Yonge Street,Toronto,ON,M4S 2A2,43.701319700000006,-79.39705620000001,4.5,20,"Delicatessen, Specialty Food, Cheese Shops, Food",,True,,True,,,,2.0,,,,,
76,fHHQ9s6wWPkTMyNVq-0SHQ,JJ Bean,130 Adelaide Street W,Toronto,ON,M5H,43.6496512778,-79.38361304930001,4.0,18,"Coffee & Tea, Coffee Roasteries, Food, Bakeries",'free',True,,True,,True,False,1.0,,,,,
77,6DWFVwgm3d9jfBUOkJuANQ,Enzo,646 Queen Street W,Toronto,ON,M6J 1E4,43.6467407,-79.40632409999999,4.0,15,"Food, Do-It-Yourself Food, Restaurants, Italian, Pizza",u'free',True,u'beer_and_wine',True,True,False,True,2.0,u'casual',u'average',True,True,True
78,3KG13qMCNegGT9oIxWAAWw,Propeller Coffee,50 Wade Avenue,Toronto,ON,M6H 3Y5,43.659413799999996,-79.44488570000001,4.0,38,"Food, Specialty Food, Coffee & Tea",'free',True,,True,,False,,2.0,,,,,
79,1Epby_tsFDci4sP0Nbjwsw,Pho Vietnam,1280 Kennedy Rd,Toronto,ON,M1P,43.7577305,-79.2786325,3.0,91,"Restaurants, Vietnamese",u'no',True,u'beer_and_wine',False,True,False,False,1.0,u'casual',u'average',True,True,True
80,vpm1jV0OCc9fHFPPTUiyjA,St Andrew Poultry,"Kensington Market, 17 Saint Andrew Street",Toronto,ON,M5T 1K7,43.654070000000004,-79.3996529,3.0,19,"Caterers, Food, Specialty Food, Butcher, Grocery, Event Planning & Services",,,,False,,,,1.0,,,,,
81,yWwIUmeenyAO7nwc7U0U5A,Niwan Rolls King,"3260 Midland Avenue, Unit F101 & 102",Toronto,ON,M1V 0C5,43.804666915,-79.2867640033,3.0,12,"Restaurants, Chinese",u'free',True,u'none',False,False,False,True,1.0,'casual',u'average',True,True,True
82,9_CGhHMz8698M9-PkVf0CQ,Little Coxwell Vietnamese & Thai Cuisine,986 Coxwell Avenue,Toronto,ON,M4C 3G5,43.696174918500006,-79.3290924315,4.0,115,"Restaurants, Vietnamese, Thai",u'no',True,u'beer_and_wine',True,False,False,True,2.0,u'casual',u'average',False,True,True
83,r48H_sNUGmcRGX1LsEc2mg,HUSH,303 King Street West,Toronto,ON,M5V 1J5,43.6463659,-79.39027270000001,3.0,72,"Restaurants, Bars, Burgers, American (New), Canadian (New), Seafood, Nightlife",'no',True,u'full_bar',True,True,True,False,2.0,u'casual',u'average',False,True,False
84,zYzYmPLViy5Q6u7rmL8AYA,Bloke & 4th,401 King Street W,Toronto,ON,M5V 1K1,43.645406099999995,-79.39410079999999,2.5,37,"Restaurants, American (New), Tapas/Small Plates, Nightlife, Tapas Bars, Canadian (New), Dance Clubs",u'no',False,u'full_bar',False,True,False,False,3.0,u'dressy','loud',False,True,False
85,5mTOBaADm2gfO_jR8PVkTA,Dark Horse Espresso Bar,416 Front Street E,Toronto,ON,M5A 1H7,43.653057500799996,-79.3570184572,2.5,11,"Food, Coffee & Tea",'free',True,,True,,False,,1.0,,,,,
86,t_XpjR3_Cf7r9tj3w3vAbw,The Beech Tree,924 Kingston Road,Toronto,ON,M4E 1S5,43.680387100000004,-79.2888628,4.0,46,"Bars, British, Nightlife, Wine Bars, Restaurants",'no',False,u'full_bar',True,True,False,False,2.0,u'casual',u'average',False,True,False
87,GKEl7LNGUqJiQWNQ0vpH8Q,Milestones Restaurants,300 Borough Dr,Toronto,ON,M1P 4P5,43.7767555,-79.25900809999999,3.0,71,"Restaurants, Nightlife, Bars, American (Traditional), Comfort Food, Canadian (New)",u'free',True,u'full_bar',True,True,True,False,2.0,u'casual',u'average',True,True,True
88,LpwmR1unntc_8KdVfwNH9g,Bulldog Coffee,111 Richmond Street W,Toronto,ON,M5H 3K6,43.65035220000001,-79.38379509999999,4.5,25,"Restaurants, Shopping, Cafes, Public Markets, Coffee & Tea, Food",u'free',True,u'full_bar',True,False,True,False,1.0,'casual','average',False,True,True
89,yDJhScdD8cCCYfO4WNb-CQ,C'est Bon,2685 Yonge St,Toronto,ON,M4N 2H8,43.7168341,-79.4001043,3.0,46,"Chinese, Restaurants",u'no',True,u'full_bar',True,True,True,True,2.0,u'casual',u'quiet',False,True,False
90,F-bdXFkJwwENiNpMTG2ntQ,The 3 Brewers,275 Yonge St,Toronto,ON,M5B 1N8,43.6555236,-79.38022240000001,3.0,256,"Breweries, Bars, Pubs, Food, Restaurants, Gastropubs, Burgers, Nightlife",'free',True,u'full_bar',True,True,False,False,2.0,u'casual',u'loud',True,True,False
91,8vXuS7T_TZGNJk9MAdV__g,Rabba Fine Foods Stores,37 Charles Street W,Toronto,ON,M4Y 2R4,43.668223499999996,-79.3876204,3.0,12,"Grocery, Convenience Stores, Food",,False,,True,,,,2.0,,,,,
92,c78Pat78fVUBFPXYeVvbaQ,Odd Seoul,90 Ossington Avenue,Toronto,ON,M6J 2Y7,43.646190000000004,-79.419686,4.0,267,"Bars, Dive Bars, Korean, Restaurants, Asian Fusion, Nightlife",u'no',False,u'full_bar',True,False,False,False,2.0,u'casual',u'loud',False,True,False
93,jgsiHIdUdgngrBPXtP6j8g,Herbs & Nutrition,572 Bloor Street W,Toronto,ON,M6G 1K1,43.6652391,-79.4120309,4.5,32,"Health Markets, Specialty Food, Food, Grocery",,True,'none',True,,,False,2.0,,,,,
94,jbThAhrLQTvO7KYxobE89Q,Dineen Coffee,199 Bay Street,Toronto,ON,,43.6481326,-79.3795089,4.0,3,"Food, Coffee & Tea",,True,,,,,,,,,,,
95,2Xh-ZYlvm1SxcKdEaD51DA,Budapest Restaurant,1959 Gerrard Street E,Toronto,ON,M4E 2A9,43.6810473,-79.3100172,4.5,47,"Restaurants, Hungarian",u'free',True,u'beer_and_wine',False,True,False,True,2.0,'casual',u'quiet',False,True,True
96,YL1MmnQXbdqmO5zexUNvlg,Matcha Tea & Dessert,407 Spadina Avenue,Toronto,ON,M5T 2G6,43.6568094,-79.3993002,2.5,27,"Food, Japanese, Cafes, Tea Rooms, Restaurants, Asian Fusion, Bakeries, Bubble Tea, Desserts, Ramen",'free',True,u'none',True,True,False,False,1.0,'casual',u'quiet',False,True,True
97,IflW1yOEcNQrB2SWxHKoSg,The Poet Cafe,173 King Street E,Toronto,ON,M5A 1J4,43.650404200000004,-79.3711469,4.0,30,"Food, Restaurants, Tapas/Small Plates, Coffee & Tea, Cafes",u'free',False,u'none',False,False,False,False,1.0,'casual',u'average',False,True,True
98,sKrt4CMGyG8YAjxVkk4hPQ,Fusaro's Kitchen,147 Spadina Avenue,Toronto,ON,M5V 2L7,43.6481372,-79.3956847,4.0,120,"Italian, Pizza, Restaurants",u'no',True,u'beer_and_wine',True,False,True,False,2.0,u'casual',u'average',False,True,True
99,UVRgPeUS5-pxGVK7OLl0Zw,The Hummingbird Caribbean Cuisine,1276 Queen Street  E,Toronto,ON,M4L 2L1,43.663687200000005,-79.32877409999999,3.5,10,"Caribbean, Restaurants",u'no',True,u'full_bar',,True,False,False,2.0,u'casual',u'average',True,True,True
100,2aIgbnGUg8VC0u9iXO-wnQ,O Sushi,6 Coxwell Avenue,Toronto,ON,M4L 3A7,43.6666242,-79.3168123,3.5,46,"Sushi Bars, Food, Restaurants",u'no',True,u'none',True,True,False,True,2.0,u'casual',u'quiet',False,True,True
101,4vTDFobDGaiI-diLF5TKkQ,D & Y Sushi,2861 Dundas Street W,Toronto,ON,M6P 1Y9,43.665152,-79.4650118,3.5,27,"Japanese, Restaurants",u'no',True,'full_bar',False,True,False,True,2.0,u'casual',u'quiet',False,True,True
102,oU-Af-_1zT-ewuLfIubN2w,Katsu Japanese Restaurant,572 Danforth Avenue,Toronto,ON,M4K 1R1,43.678694799999995,-79.3470507,3.0,86,"Japanese, Restaurants, Sushi Bars",u'no',True,u'full_bar',True,True,False,True,2.0,u'casual',u'average',False,True,True
103,RiY8R8AKdTTA37UAwvbUXw,Fuzion,580 Church St,Toronto,ON,M4Y 2E5,43.6667854,-79.3815027,2.5,22,"Restaurants, American (New), Canadian (New)",,False,u'full_bar',,True,True,False,3.0,u'casual',u'average',False,True,False
104,A3YhRPb0DPQPJL22nlYSxw,Buddha Pie,514B Annette Street,Toronto,ON,M6P 1S3,43.6602773,-79.4797994,3.5,45,"Pizza, Restaurants, Sandwiches, Coffee & Tea, Food",u'no',True,u'none',True,False,True,False,2.0,u'casual',u'quiet',False,False,True
105,4_GIJk0tX3k0x0FcUv4sNA,Basil Thai Kitchen,2326 Danforth Ave,Toronto,ON,M4C 1K7,43.6871826,-79.3070536,4.0,36,"Restaurants, Thai, Malaysian, Event Planning & Services, Caterers",u'no',True,u'none',True,True,False,True,2.0,u'casual',u'quiet',False,True,True
106,GhCbfTGJtB8Y1ZVjTzx53A,CoCo Fresh Tea & Juice,"3300 Midland Avenue, UNIT 36",Toronto,ON,M1V 4A1,43.8067504,-79.28885809999998,3.5,87,"Coffee & Tea, Food, Juice Bars & Smoothies",u'free',True,'none',True,,False,False,1.0,,,,,
107,wWjDMAy3NjpuIN64fASGfQ,The Little Dog,566 College Street,Toronto,ON,M6G 1A9,43.6557382,-79.412564,3.0,23,"Restaurants, Hot Dogs, Specialty Food, Food",u'free',True,'none',True,False,True,False,1.0,u'casual',u'average',False,False,True
108,0tMhUM4FJy-onBd8ppUDng,Wrap & Grab,171 Dundas St W,Toronto,ON,M5G,43.655170700000006,-79.3862637,3.5,12,"Restaurants, Middle Eastern",u'no',True,u'none',,False,False,,1.0,u'casual',u'average',True,True,True
109,Fw0u5YqMSLXhmNevrCPBMg,Annona Resturant,"Park Hyatt Hotel, 4 Avenue Road",Toronto,ON,M5R 2E8,43.669154,-79.394715,3.5,69,"American (New), Canadian (New), Restaurants",'free',False,u'full_bar',False,True,False,False,3.0,u'dressy',u'quiet',False,True,True
110,XYIPXJ9parr9FtvvcGI1SA,GB Hand-pulled Noodles,66 Edward Street,Toronto,ON,M5G 1C9,43.656754799999995,-79.3837248,4.0,421,"Chinese, Restaurants, Noodles",'no',True,u'none',True,False,False,False,2.0,u'casual',u'average',False,False,True
111,QTIpGviABuI58EMYyeubkw,Starbank,705 Queen St E,Toronto,ON,M4M 1G6,43.6586602,-79.3499838,4.0,7,"Food, Convenience Stores",,True,,True,,,,1.0,,,,,
112,pTbkdBDDKxNVjKUZ_6RAug,Xawaash,"130 Queens Plate Drive, Unit 1",Toronto,ON,M9W,43.715314500000005,-79.5928985,4.0,105,"Event Planning & Services, Caterers, Specialty Food, Restaurants, Halal, Internet Cafes, Mediterranean, Middle Eastern, African, Food",u'free',True,u'none',True,True,False,False,2.0,'casual',u'average',True,True,True
113,a7mTbEi2N8Zd-r-8jlReww,Koryo Korean Barbeque,300 Borough Drive,Toronto,ON,M1P 4P5,43.7752095518,-79.25708778149999,3.5,7,"Japanese, Korean, Restaurants, Barbeque, Fast Food",u'no',True,u'none',True,True,False,False,2.0,'casual',,True,True,True
114,VIsPmeZBMLkgbgw4UqCjUQ,AAA Bar,598 Gerrard Street E,Toronto,ON,M4M 1Y3,43.6658422,-79.3519276,3.0,11,"Restaurants, Nightlife, Bars, Barbeque",'no',True,,,False,,False,2.0,u'casual',,,True,True
115,z8H4Mdzl4jS9pYswj6Jf9w,Buca Yorkville,53 Scollard Street,Toronto,ON,M5R 0A1,43.6721423,-79.3893921,3.5,158,"Seafood, Breakfast & Brunch, Italian, Restaurants",'no',False,'full_bar',False,True,False,False,3.0,'dressy',u'loud',False,True,False
116,a9aW5e731lplWGHUZ02-zQ,Chino Locos Original,4 Greenwood Avenue,Toronto,ON,M4L 2P4,43.6644821,-79.3255005,4.0,171,"Asian Fusion, Vegetarian, Vegan, Mexican, Restaurants",u'no',True,u'none',True,False,False,False,1.0,u'casual',u'average',True,False,True
117,WBD4KaMGIJNNvFMAAHkaog,Toronto Cash & Carry,1405 Gerrard St E,Toronto,ON,M4L 1Z5,43.671954,-79.323412,4.5,5,"Ethnic Food, Specialty Food, Herbs & Spices, Food, Grocery",,,,,,,,1.0,,,,,
118,k7D1eFxN-_Ry491C-RiMpw,Wild Wing,1571 Sandhurst Circle,Toronto,ON,M1V 1V2,43.809254700000004,-79.2696046,2.0,20,"Restaurants, American (Traditional), Chicken Wings",u'no',True,u'full_bar',True,True,True,False,2.0,u'casual',u'loud',True,True,False
119,p82Oz-NOHn-MAZQ0jQBkNg,Riki Sushi,833 Bloor Street W,Toronto,ON,M6G 1M1,43.662417100000006,-79.4228715,4.0,11,"Sushi Bars, Restaurants, Japanese, Asian Fusion",u'free',True,u'beer_and_wine',True,True,False,True,2.0,u'casual',u'quiet',False,True,True
120,H_YBTOS23PRhrjWtP7TeJw,Marigold Indian Bistro,552 Mount Pleasant Road,Toronto,ON,M4S 2M6,43.7028513,-79.3882842,3.5,62,"Indian, Pakistani, Restaurants",u'free',True,u'full_bar',True,True,False,True,2.0,'casual','average',False,True,True
121,ctZqUMbvhJh5G4ofMUjjAA,Scoop and Bean,2 Follis Avenue,Toronto,ON,M6G 1S4,43.6696409,-79.41342579999998,4.5,4,"Food, Coffee & Tea",'free',,,True,,True,,1.0,,,,,
122,O80rb1fWrFCwyAxExZ3NPw,Kings Delight Caribbean Cuisine,1658 Jane St,Toronto,ON,M9N 2S1,43.7019167,-79.5035253,4.5,9,"Ethnic Food, Food, Fish & Chips, Restaurants, Specialty Food, Barbeque, Caribbean",'no',True,'none',True,False,False,False,1.0,'casual','average',False,False,True
123,ZcO6xKyETimcLjAkDiLQPQ,Manhattans Hand-Made Burgers,333 Bay Street,Toronto,ON,M5H 2R2,43.6503406,-79.3805207,3.5,23,"Restaurants, Burgers",u'no',True,u'none',False,False,False,False,1.0,u'casual',u'average',False,True,True
124,2iYGfGTI2Bm56rUaJfpZug,Starbucks,1842 Queen St E,Toronto,ON,M4L 6T3,43.668546,-79.307956,3.0,8,"Coffee & Tea, Food",'free',True,,True,,True,,2.0,,,,,
125,kFMEdURGAp4g29oaiF5Hjg,Earth Rosedale,1055 Yonge Street,Toronto,ON,M4W 2L2,43.6783912,-79.38982469999999,4.0,62,"Breakfast & Brunch, Restaurants, Local Flavor, American (New), Canadian (New)",u'free',False,u'full_bar',,True,True,False,3.0,u'casual',u'average',False,True,False
126,Pf8flcMF3hco_rG0EdUGog,Bbreakfasts,1121 Bay Street,Toronto,ON,M5S 3L9,43.6680033,-79.3885578,3.0,8,"Fast Food, Breakfast & Brunch, Restaurants, Burgers",u'free',True,u'none',,False,False,False,1.0,u'casual',u'average',False,False,True
127,WBaQtymoLPJfxnlBwIViow,Bistro 243,243 King Street E,Toronto,ON,M5A 1J9,43.6510114,-79.3684537,3.0,26,"Breakfast & Brunch, Bistros, Restaurants",u'no',True,u'full_bar',True,True,False,False,2.0,u'casual',u'average',True,True,True
128,ndcCAM9tdKUlj4F2kuhQMw,Kristapsons,1095 Queen Street E,Toronto,ON,M4M 1K7,43.6618494,-79.3359748,4.5,10,"Specialty Food, Food, Seafood Markets",,True,,True,,,,3.0,,,,,
129,rmHBam1Z0aBARUd45IG_qw,Mayettes,"3331 Danforth Avenue, Unit A",Toronto,ON,M1L 1C5,43.6927912,-79.28118459999999,4.5,5,"Ethnic Food, Personal Chefs, Restaurants, Seafood, Event Planning & Services, Fast Food, Specialty Food, Barbeque, Party & Event Planning, Filipino, Local Flavor, Food, Caterers",u'free',True,u'none',True,True,False,True,2.0,u'casual',u'average',True,True,True
130,vlh_e6Ftu2MyS0K-e-wdYA,Chunky Chicken,128-45 Overlea Boulevard,Toronto,ON,M4H 1C3,43.7102476,-79.33533050000001,4.0,4,"Fast Food, Restaurants, Chicken Wings, Halal, Burgers, Pizza",u'no',True,u'none',True,False,False,False,1.0,u'casual',,False,True,True
131,N1Tmmy55Zj6__67xh_uCxw,The One in the Only,966 Danforth Avenue,Toronto,ON,M4J 1L9,43.680502600000004,-79.33790690000001,4.0,30,"Food, Coffee & Tea",u'free',True,,True,,True,,1.0,,,,,
132,kVXQmct8R4Ygmk54eF32lw,Fare Game Continental Cuisine,195 Carlton Street,Toronto,ON,M5A 2K7,43.663607899999995,-79.3706368,4.0,4,"Restaurants, Canadian (New)",u'free',True,u'full_bar',,True,True,False,,u'casual',u'quiet',False,,
133,9plsFe_gSy-sgURNSBPITQ,Second Cup,693 Wilson Ave,Toronto,ON,M3K 1E3,43.732308697600004,-79.4554870203,3.0,9,"Food, Coffee & Tea",'free',True,,True,,True,,1.0,,,,,
134,l9QMOv3_RIUteG0wJc82SA,Formocha North York,5377 Yonge Street,Toronto,ON,M2N 5R6,43.775864500000004,-79.414118,3.5,34,"Coffee & Tea, Food, Juice Bars & Smoothies",'free',True,,False,,False,,1.0,,,,,
135,A4aqz0pfgMX-votNbSZQDA,Modus Ristorante,145 King Street W,Toronto,ON,M5H 4G2,43.647468599999996,-79.3839517,3.5,20,"Restaurants, Italian",u'no',False,u'full_bar',True,True,True,False,3.0,u'dressy',u'average',True,True,False
136,Km9IPMrNPEnn40ebgxs6vw,Nu Bügel,240 Augusta Avenue,Toronto,ON,M5T 2L7,43.655361210900004,-79.4023953024,3.5,158,"Bagels, Food",,True,,True,,,,2.0,,,,,
137,PNzGMlH0SnvIMxIESVNLgw,Starbucks,"1 First Canadian Place, 77 Adelaide Street W",Toronto,ON,M5X 1C1,43.64842,-79.3819,4.0,3,"Food, Coffee & Tea",'free',True,,True,,False,,2.0,,,,,
138,pvo-RRtvw1zBAHRzr8669w,Dumpling Buffet,3320 Midland Avenue,Toronto,ON,M1V 1R4,43.807745178999994,-79.2895870283,3.0,12,"Restaurants, Chinese",,True,,,,,,,,,,True,
139,QZCAx1CM8Q5NSTc-8ProOA,Cafe Novo,254 Augusta Avenue,Toronto,ON,M5T 2L7,43.6557771,-79.4026824,3.5,18,"Cafes, Restaurants",'free',True,u'none',True,False,True,False,1.0,u'casual',u'average',False,True,True
140,qeIKP9mGEucrdxbGo9uRTw,Bourbon Street Smokehouse,901 Bloor Street W,Toronto,ON,M6H 1L2,43.6616784,-79.42627890000001,4.0,16,"Barbeque, Restaurants, Food, Smokehouse, Southern",,True,u'full_bar',True,True,False,,2.0,u'casual',u'quiet',True,True,True
141,IZI9BdElfGB-WcHpd7Wg7Q,Pho Dai Nam,462 Birchmount Rd,Toronto,ON,M1K,43.7069859,-79.26814820000001,4.0,19,"Vietnamese, Restaurants",u'no',True,u'none',True,False,False,True,2.0,u'casual',u'quiet',False,True,True
142,wC_uWvRXyWqG6EygMfPhOQ,The Gladstone Cafe,1181 Queen Street W,Toronto,ON,M6J 1J4,43.6425668,-79.427059,3.5,16,"Diners, Food, Cafes, Restaurants, Food Delivery Services",,True,'none',True,False,True,True,1.0,u'casual',u'quiet',False,True,True
143,p6mnPa2-__9ttPTIfecc0Q,Subway,727 Queen Street E,Toronto,ON,M4M 1H1,43.6590216,-79.3491051,2.0,4,"Delicatessen, Food, Fast Food, Sandwiches, Restaurants",,True,,,False,,False,,,,,False,False
144,vl_LNtimh_DMxZ1YQfl8aA,Magic Oven,127 Jefferson Avenue,Toronto,ON,M6K 3E4,43.6396613343,-79.4219483696,2.5,23,"Pizza, Gluten-Free, Vegan, Restaurants",u'no',True,u'none',True,False,True,True,2.0,u'casual',u'average',True,False,True
145,6G_S11aSDjdYnvqRaF24_w,Scruffy Murphy's Irish Pub,150 Eglinton Avenue E,Toronto,ON,M4P 1E8,43.708009000000004,-79.393628,3.0,32,"Nightlife, Restaurants, Pubs, Performing Arts, Irish Pub, Irish, Arts & Entertainment, Cajun/Creole, Bars",,,u'full_bar',True,,True,,2.0,,u'very_loud',True,True,
146,Oq3EFcMbQ6J4V2uxga77KQ,Creeds Coffee Bar,1595 Bayview Ave,Toronto,ON,M4G 3B5,43.7061117,-79.3751346,4.0,6,"Restaurants, Sandwiches, Food, Coffee & Tea",u'free',True,'none',True,,True,,,,'quiet',True,,
147,-llrUA_TlQTWH_CMM3NTNQ,KFC,415 Mount Pleasant Road,Toronto,ON,M4S 2L5,43.699307,-79.386229,1.5,5,"Chicken Shop, Fast Food, Restaurants, American (Traditional), Chicken Wings",,True,,,False,,,,,,,False,False
148,SFcmvdfsyjsgmu-b9L91Vw,FreshCo,1245 Dupont Street,Toronto,ON,M6H 2A6,43.6675041,-79.4420863,2.5,9,"Grocery, Food",,False,,True,,,,2.0,,,,,
149,hQtGXpMq4gyRWH4s2iNpUQ,Odin,"514 King Street E, Unit 7",Toronto,ON,M5A 1M1,43.6563809,-79.357038,3.5,63,"Cafes, Restaurants, Bars, Nightlife",u'free',True,u'full_bar',True,False,True,False,1.0,u'casual',u'quiet',False,True,False
150,kiwbnv4prSca7lELVhxgIQ,LCBO - Maple Leaf Gardens,20 Carlton Street,Toronto,ON,M5B 1J2,43.662257588900005,-79.3797508975,3.0,15,"Beer, Wine & Spirits, Food",,False,,True,,,,2.0,,,,,
151,Am0Uvt_lOWzp6UKBDAoRNA,Aroma Espresso Bar,2-16 Pleasant Boulevard,Toronto,ON,M4T 1J8,43.6872913355,-79.3936046688,2.5,12,"Food, Breakfast & Brunch, Coffee & Tea, Restaurants, Bakeries",'free',True,,True,,True,,2.0,,,,,
152,K9xTkwZX-ZdMWPK8EQOy6A,Malado Sushi,2437 Finch Avenue W,Toronto,ON,M9M 2E7,43.7498162,-79.5493678,4.0,34,"Restaurants, Sushi Bars, Korean, Japanese",u'no',True,'beer_and_wine',False,True,False,False,2.0,u'casual','average',True,True,True
153,6ZydAxt8IH5zTdDC0yna_A,Mercat del Carmen,920 Queen Street W,Toronto,ON,M6J 1G6,43.6449495,-79.41575350000001,3.5,6,"Spanish, International Grocery, Ethnic Grocery, Food, Restaurants, Thai, Desserts",,True,,True,False,False,False,2.0,u'casual',,False,False,True
154,xNNAfZJkLZlAeS-I7-QwgA,Pho Tien,358 Bathurst Street,Toronto,ON,M5T 2S7,43.6527045,-79.406407,3.5,41,"Restaurants, Vietnamese",'no',True,u'full_bar',True,True,False,True,1.0,u'casual',u'quiet',True,True,True
155,fo_w5L2x00wS4NMHzE8oyg,Sandoozles Smokehouse & Pub,709 Mount Pleasant Road,Toronto,ON,M4S 2N4,43.7074876432,-79.3896615989,2.5,6,"Restaurants, Barbeque",,True,,,,False,,2.0,u'casual',u'average',True,False,
156,Bh5VbI_9msk3GaD0kiKkmg,Nanashake,"4750 Yonge Street, Unit 134",Toronto,ON,M2N 0J6,43.760058175,-79.412188931,3.5,51,"Food, Restaurants, Vegetarian, Ice Cream & Frozen Yogurt, Vegan",'no',True,,True,False,True,False,1.0,u'casual',u'quiet',False,True,True
157,Gv8u5bX_Kd7HG7jkeF_vWA,Ten Feet Tall,1381 Danforth Avenue,Toronto,ON,M4J 1N2,43.6822547,-79.32801359999999,3.0,5,"Arts & Entertainment, Cafes, Restaurants, Nightlife, Music Venues",,True,u'full_bar',,True,True,False,2.0,u'casual',,False,True,True
158,FM0h7JHdthhnc50vgGWzpA,I'll Be Seeing You,747 Queen Street E,Toronto,ON,M4M 1H3,43.65899279999999,-79.3480738,5.0,35,"Bars, Wine Bars, Comfort Food, Cocktail Bars, Restaurants, Nightlife",u'free',True,u'full_bar',True,True,False,False,2.0,'casual','average',True,True,False
159,ZCYCNWA98718SZ0A4bHD7A,Dear & Fro,"3300 Midland Avenue, Unit 39",Toronto,ON,M1V,43.8067504,-79.28885809999998,3.5,120,"Ice Cream & Frozen Yogurt, Food, Restaurants, Cafes, Desserts, Korean",'free',True,,True,,,,2.0,,,,,
160,W9wFhYz0hj9mQ_5vHfk31A,Kal & Mooy,238 Queen Street W,Toronto,ON,M5G,43.650130600000004,-79.3904119,5.0,33,"Food, Specialty Food, Middle Eastern, Restaurants, African, Ethnic Food, Food Trucks",'no',True,u'none',True,False,True,False,1.0,'casual',u'average',False,True,True
161,wffN4optBUAy4LVOOPZN7g,6th Street Gastro Pub & Pizza,4923 Dundas Street W,Toronto,ON,M9A 1B8,43.648546100000004,-79.52892,3.5,18,"Lounges, Nightlife, Bars, Pizza, Restaurants, Gastropubs, Southern, Tex-Mex, Pubs",u'free',True,u'full_bar',True,True,False,True,2.0,u'casual',u'average',True,True,True
162,EbrZfcG29xyKIiZeocJ-Bg,Run and gun,1541 Dundas Street W,Toronto,ON,M6K 1T6,43.6496361,-79.43323649999999,4.5,10,"Food, Coffee & Tea, Desserts",'free',True,,True,,True,,1.0,,,,,
163,Js5dRDxKpB8TqcO8tNPEvA,Lebanon Express,439 Yonge Street,Toronto,ON,M5B 1T3,43.6610723,-79.38275909999999,3.5,59,"Restaurants, Middle Eastern, Food",u'no',True,'none',True,False,False,False,1.0,u'casual',u'average',True,False,False
164,cPPYaBM07eTlkknpvVpW1Q,The Theatre Centre,1115 Queen Street W,Toronto,ON,M6J 3T4,43.6431093,-79.42325840000001,4.5,5,"Cafes, Performing Arts, Arts & Entertainment, Cinema, Restaurants",,,,,,,,,,,,,True
165,3X-sooX0dLo8BB_XItjD4w,Treats,B120-121 King Street W,Toronto,ON,M5H 3T9,43.6477755,-79.3831243,4.5,4,"Bakeries, Coffee & Tea, Desserts, Food",,,,,,False,,1.0,,,,,
166,x4q_kJ-dvaHL7dkpZKJUdg,Bob's Bulgogi,105 Victoria Street,Toronto,ON,M5C 3B4,43.652139,-79.377507,4.0,72,"Korean, Restaurants",'no',True,u'none',True,False,False,False,1.0,u'casual',u'average',False,False,False
167,VopuT3hjU8_OobE-ROt9HQ,Hot Pot Garden,"668 Silver Star Boulevard, Unit 203",Toronto,ON,M1V 5N1,43.8228248,-79.3010002,3.0,4,"Hot Pot, Chinese, Restaurants",,,,,True,,,,,,,True,True
168,4ZNr_HOSCXMCzY4xN4WACA,Toucan Tacos,686 Queen Street E,Toronto,ON,M4M 1G6,43.658744899999995,-79.3507401,2.5,15,"Restaurants, Mexican",,True,u'full_bar',,True,True,False,2.0,u'casual',u'quiet',False,True,True
169,G2yY7OdcwX71jCkKP1-Efg,Potman Hotpot,"633 Silver Star Boulverd, Unit 110-111",Toronto,ON,M1V 5N1,43.82195170000001,-79.2984027,4.0,44,"Hot Pot, Restaurants",'free',False,'beer_and_wine',,True,False,False,2.0,'casual',u'average',True,True,True
170,_RaSewXYRY7QiIpb07iHWw,Tom's No Frills,1150 Victoria Park Avenue,Toronto,ON,M4B 2K4,43.708293700000006,-79.2962894,3.0,5,"Food, Grocery",,True,,True,,,,2.0,,,,,
171,Hbe9EMTwdZruqOEDXXFb5Q,The Boulevard Cafe,161 Harbord Street,Toronto,ON,M5S 1H1,43.6619075,-79.4068878,3.0,44,"Breakfast & Brunch, Cafes, Latin American, Event Planning & Services, Restaurants, Peruvian, Caterers",u'no',True,u'full_bar',True,True,True,False,2.0,u'casual',u'average',False,True,False
172,l07ctcrDMV--TYwe3uzebQ,Huh Ga Ne,"19 Finch Avenue W, Unit A",Toronto,ON,M2N 7K4,43.779169399999994,-79.4172467,3.5,98,"Restaurants, Korean",u'no',True,'beer_and_wine',True,True,False,False,2.0,u'casual',u'loud',True,True,True
173,G6aNyWVp2UjgKRidP_U2jw,La Limonada,"Toronto Spiritualist Temple, 706 College Street",Toronto,ON,M6G 1C1,43.6554002,-79.4181865,5.0,10,"Food Stands, Restaurants, Food, Juice Bars & Smoothies",u'no',True,,,False,,False,2.0,'casual',u'average',,,False
174,Q2sfvKRIByuP0p7Vwgnt7A,Sing Sing Barbeque House,351 Av Broadview,Toronto,ON,M4M 2H1,43.6651176,-79.35226829999999,3.5,3,"Restaurants, Barbeque",'no',True,,False,False,False,False,,'casual',,False,,False
175,zkk1ieQQnWtu9TLJukXC0g,Boar N Wing Sports Grill,5164 Dundas Street W,Toronto,ON,M9A 1C4,43.6430341,-79.5342349,3.0,26,"Restaurants, American (Traditional), Nightlife, Chicken Wings, Bars, Burgers, Sports Bars",u'no',True,u'full_bar',False,True,False,True,2.0,u'casual',u'average',True,True,False
176,-PKUAor_Nz_IaNjP_jIwyA,Playa Cabana - Hacienda,14 Dupont Street,Toronto,ON,M5R 1V3,43.6770684,-79.3981842,3.5,128,"Restaurants, Mexican",'no',False,u'full_bar',True,True,True,False,2.0,u'casual',u'loud',False,True,False
177,cVdcHgCBKM5l9KS9sizQag,King's Diner,906 Kingston Road,Toronto,ON,M4E 1S5,43.6805101,-79.2895166,3.5,30,"Restaurants, Breakfast & Brunch, Diners",u'no',True,u'full_bar',True,True,False,False,1.0,u'casual',u'average',False,True,True
178,aXPw7yszWON9ZvXjNJ9bNw,Passion Grill,2836 Lake Shore Boulevard W,Toronto,ON,M8V 2Y6,43.6016854,-79.5017682,2.0,3,"American (Traditional), Halal, Sandwiches, Burgers, Restaurants",,True,,True,True,False,True,2.0,,,,True,True
179,R3kb47nmj39ihivxq-P5Vw,Coffee Time,1471 Eglinton Ave W,Toronto,ON,M6E 2G6,43.6979274,-79.43912370000001,2.0,5,"Coffee & Tea, Donuts, Food",,,,True,,,,2.0,,,,,
180,cjatara6LkXRu2BXD_jxlA,Chat Bar,633 Silver Star Boulevard,Toronto,ON,M1V 5N1,43.822058,-79.298592,3.5,52,"Restaurants, Barbeque, Tapas Bars, Chinese",'free',True,u'beer_and_wine',False,False,False,False,2.0,u'casual',u'loud',True,True,False
181,sKIAHIGW0viQGFAMGgQ3Rg,Sushi Mugen,1105 Queen Street E,Toronto,ON,M4M 1K7,43.662033471899996,-79.335608385,4.0,7,"Japanese, Restaurants, Sushi Bars",u'free',True,u'none',,True,,True,,,,,,
182,JTRr4n5ia0VYk8uwP3n1qw,Burak Market,982 Danforth  Avenue,Toronto,ON,M4J 1M1,43.6803468,-79.3375975,2.5,3,"Grocery, Food",,,,,,,,4.0,,,,,
183,cbxyYUsJMWk1oEgzfoJ28A,Il Gusto Ristorante,796 College St,Toronto,ON,M6G 1C6,43.6547935,-79.4213405,3.0,7,"Italian, Restaurants",,True,u'full_bar',,True,True,False,2.0,u'casual',u'quiet',,True,True
184,I57O9xjahLTtx22El93f4g,Arepa Market,214 Augusta Ave,Toronto,ON,M5T 2L6,43.654787,-79.4021369,4.0,5,"Gluten-Free, Latin American, Sandwiches, Restaurants",u'free',False,u'none',,False,True,True,1.0,,u'loud',,False,False
185,Pejzx2YgZvywGXJo-thfnw,Pepper Chili,368 Avenue Broadview,Toronto,ON,M4M 2G9,43.665329,-79.3528595,3.0,3,"Restaurants, Chinese",,True,,,True,,True,1.0,,u'loud',,True,
186,e084b0uMSnEP7-PYlmAKbA,Lick's Homeburgers & Ice Cream,900 Warden Avenue,Toronto,ON,M1L 4W6,43.7294443,-79.288563,2.0,15,"Ice Cream & Frozen Yogurt, Burgers, Restaurants, Food",u'no',True,u'none',True,False,False,False,2.0,u'casual',u'average',,True,False
187,gS9MphCeLc9JzUrEOEA4_Q,1 Love Kitchen,247 Queen Street W,Toronto,ON,M5V 1Z4,43.6502718,-79.3887054,3.0,12,"Caribbean, Restaurants",,True,u'none',True,False,False,,1.0,u'casual',u'loud',False,False,False
188,e59uNE07Gf-yrIl4rX3KZw,Bareburger,111 Dundas Street W,Toronto,ON,M5G,43.6556244,-79.38414279999999,3.5,264,"Vegetarian, Burgers, Salad, Breakfast & Brunch, Restaurants, American (Traditional)",u'free',True,'full_bar',True,True,True,False,2.0,'casual','average',True,True,True
189,RyKFUOBakk8I0K-EKaf33Q,Back of House,181 Carlaw Avenue,Toronto,ON,M4M 2S1,43.6618117,-79.3402579,4.5,14,"Restaurants, Food, Breakfast & Brunch",'no',True,'none',True,False,False,False,2.0,'casual','quiet',False,True,True
190,j76FtDF70w93QKrcnT9AMA,Matahari Grill,39 Baldwin St,Toronto,ON,M5T 1L1,43.655888399999995,-79.39358879999999,3.0,68,"Malaysian, Restaurants",u'no',True,u'full_bar',True,True,True,False,2.0,u'casual',u'average',False,True,False
191,NR2-lpZ91nDvP5pfavhtIQ,Tea A Break Tea House,"3250 Midland Avenue, Unit G107",Toronto,ON,M1V 4A1,43.80392020000001,-79.2863821,2.5,5,"Chinese, Food, Restaurants, Tea Rooms",,,,,,False,,,,,,,
192,D5oLn4j7eezCAoOsuYr8jA,ND Sushi & Grill,370 College St,Toronto,ON,M5T 1S6,43.6572686,-79.4046849,4.0,24,"Sushi Bars, Restaurants",'free',True,'beer_and_wine',,True,False,True,2.0,'casual',,False,True,True
193,YkAIlxYZ1guSqbbowU9X4g,Luckee,328 Wellington Street W,Toronto,ON,M5V 3T4,43.6446974,-79.39239509999999,3.5,186,"Breakfast & Brunch, Chinese, Dim Sum, Restaurants",u'no',True,'full_bar',True,True,False,False,3.0,'casual',u'average',False,True,False
194,POuD26KrQ_ssxKuSFfXY0A,Starbucks,205 Humber College Boulevard,Toronto,ON,M9W 5L7,43.728645799999995,-79.6082722,2.5,5,"Food, Bakeries, Coffee & Tea",,True,,,,,False,,,,,,
195,a23aElEgvCFhxdtqdzh7bg,Bow Thai Restaurant,1970 Queen Street E,Toronto,ON,M4L 1H8,43.6698968,-79.30154559999998,3.0,7,"Thai, Restaurants",,True,,,,,,2.0,u'casual',,,,
196,7yKiBNv5wpr4xEHIisAXOg,Golden Gate restaurant,2428 Islington Avenue,Toronto,ON,M9W 3X7,43.723505200000005,-79.55994890000001,4.0,4,"Restaurants, African",,True,,,,,,,,,,,
197,rl137V_5Hx0cJAV4beVdhA,Campechano Taquería,504 Adelaide Street W,Toronto,ON,M5V 1T4,43.6458109,-79.4007718,4.0,134,"Mexican, Restaurants",'no',True,u'full_bar',True,True,True,False,2.0,u'casual',u'average',False,True,False
198,ZHSMToFUzdVijeJvrWLNJw,The Trane Studio,964 Bathurst Street,Toronto,ON,M5R 3G5,43.6695092,-79.413069,3.5,7,"Restaurants, Caribbean, Nightlife, Music Venues, Arts & Entertainment, Jazz & Blues",u'free',False,u'none',,False,False,False,,,,,True,
199,Kx7DTzbfY4K-uYJKTibesg,Real Thai On,1630 Jane Street,Toronto,ON,M9N 2R8,43.700925700000006,-79.50325629999999,3.5,18,"Breakfast & Brunch, Malaysian, Restaurants, Thai",'no',True,'none',False,True,False,True,2.0,'casual','quiet',True,True,True
200,x6aWnNa8fyakUb5QaOdTIQ,The Fix + Co,1 Thirtieth Street,Toronto,ON,M8W 3B5,43.5955287528,-79.5297853307,4.5,16,"Organic Stores, Juice Bars & Smoothies, Vegan, Specialty Food, Health Markets, Restaurants, Food, Gluten-Free, Coffee & Tea, Salad",u'no',True,u'none',True,False,True,True,2.0,'casual',u'quiet',False,False,False
201,BZmZ9TTYkDe-Nm2UNAYzQQ,The Friendly Thai,500 Queen St W,Toronto,ON,M5V 2B3,43.647936,-79.40125309999999,2.5,3,"Thai, Restaurants",,True,u'full_bar',,,,,2.0,u'casual',,,True,False
202,dhJT_J5UG6erwqYhf9gNyg,Beach Sushi House,2222 Queen Street E,Toronto,ON,M4E 1E9,43.672626,-79.2880939,4.0,5,"Japanese, Korean, Restaurants",,True,u'full_bar',,,,True,2.0,u'casual',u'quiet',,True,
203,996axDvF9P8zxB9MJA52Xg,Yuzu Izakaya,5582 Yonge Street,Toronto,ON,M2N,43.779040904,-79.41552814100001,4.0,26,"Tapas/Small Plates, Nightlife, Restaurants, Tapas Bars, Japanese, Bars",'no',False,u'full_bar',True,True,False,False,2.0,u'casual',u'average',False,True,False
204,Li7qTVABZBvKzvcNY-oT_w,Pita Land,1841 Finch Ave W,Toronto,ON,M3N 2V2,43.7571675,-79.514186,2.0,4,"Sandwiches, Restaurants, Halal, Middle Eastern",,,,,,,,,,,,,
205,V6YcXm6mtKTjsYJxEK5HVA,Mascot Brewery,31 Mercer Street,Toronto,ON,M5V 1H2,43.645648190900005,-79.3907867509,3.0,55,"Breweries, Food, Nightlife, Beer Gardens, Bars",,False,,True,,,,2.0,,,,,
206,uFNM9ICvZN0TEbURIpiIDQ,Chinese Dumplings,645 St. Clair Avenue W,Toronto,ON,M6C 1A7,43.681847,-79.42424100000001,3.5,44,"Restaurants, Chinese",u'no',True,u'beer_and_wine',True,False,False,True,2.0,u'casual',u'average',True,True,True
207,O4ucsINTXLJaZ63XcWTsIw,Super Kolbasa & Deli,83 Roncesvalles Avenue,Toronto,ON,M6R 2K6,43.641556,-79.44705,4.0,13,"Polish, Sandwiches, Restaurants, Specialty Food, Food, Cheese Shops, Delis",,True,,True,False,,False,1.0,'casual',u'average',False,True,True
208,O-uIEuv7JLUHajkemx_sVw,Beerbistro,18 King Street E,Toronto,ON,M5C 1C4,43.649817,-79.377147,4.0,596,"Restaurants, Bistros, Bars, Beer Bar, Pubs, Nightlife, American (New), Canadian (New)",u'free',True,u'full_bar',True,True,True,False,2.0,u'casual',u'average',True,True,False
209,AsXzV6QKqO3IjekPavLpmg,Wendy's,4228 Midland Ave,Toronto,ON,M1V 5G9,43.825495937700005,-79.29771378640001,2.0,6,"Fast Food, Burgers, Restaurants",,True,,,False,,,,,,,False,True
210,s8N66BJ9P-sqhisX47o1Sg,Roti Time,2542 St Clair Ave West,Toronto,ON,M6N 1L7,43.6682846,-79.487228,3.5,55,"Indian, Restaurants",u'no',True,u'none',True,False,False,False,1.0,u'casual',u'quiet',False,True,True
211,7UPTUpex3O1Gav3td7GOEw,South St Burger Co,1090 Don Mills Rd,Toronto,ON,M3C 3R6,43.7364416,-79.344201,3.0,6,"Restaurants, Burgers",,True,,,False,False,,2.0,u'casual',u'average',,False,True
212,ogUiKg4hL01zt2o2M5IZ3w,Ame,19 Mercer St,Toronto,ON,M5V 1H2,43.6456899,-79.3905064,3.5,24,"Bars, Restaurants, Japanese, Nightlife",,False,u'full_bar',,True,False,False,4.0,u'dressy',u'average',,True,False
213,ck-5NFpK8CQsUMD4LHaf5w,Swan Restaurant,892 Queen Street W,Toronto,ON,M6J 1G3,43.6452774,-79.4149396,3.5,107,"Restaurants, American (Traditional), Breakfast & Brunch, Diners",u'no',True,u'full_bar',,False,False,False,2.0,u'casual',u'average',False,False,False
214,85-hoogKT4MR5eTqffpxAA,Super Zamani,6120 Yonge St,Toronto,ON,M2M 3W8,43.791587400000004,-79.4188972,2.5,3,"Restaurants, Grocery, Halal, Food, Persian/Iranian",,False,,,False,,False,,,,,,
215,qhagbvK-Pv4cGGghJ7gXBA,Konnichiwa,31 Baldwin Street,Toronto,ON,M5T 1L2,43.6558544,-79.39328090000001,4.0,117,"Japanese, Restaurants",u'no',True,'beer_and_wine',True,True,True,False,2.0,u'casual',u'average',False,False,True
216,4wlqqIbuNOEFn8ub4dJxlQ,The Healthy Road,518 King Street E,Toronto,ON,M5A 1M1,43.6563809,-79.357038,5.0,5,"Grocery, Food, Organic Stores",,,,True,,,True,2.0,,,,,
217,KMKZ2HK91lSySfs3C0a21Q,Teappuccino,130 St George Street,Toronto,ON,M5S 1A5,43.6644223,-79.39933590000001,5.0,7,"Bubble Tea, Tea Rooms, Coffee & Tea, Food, Food Trucks, Restaurants, Cafes",,,,,,,False,,,,,,
218,BcUANwVc5i48V-hmsFs1rw,Bagel World,417 Bloor St W,Toronto,ON,M4W 1A7,43.66637070000001,-79.40465999999999,3.0,3,"Food, Bagels",,,,,,,,2.0,,,,,
219,AakkkTuGZA2KBodKi2_u8A,Pho Phuong,1603 Dundas Street W,Toronto,ON,M6K 1T9,43.649674299999994,-79.4351157,3.5,55,"Asian Fusion, Restaurants, Vietnamese",u'free',True,u'full_bar',True,True,False,False,2.0,u'casual','average',True,True,True
220,bW_PZvHEl7-j5Dj-xIo74g,Martin's Bakery,2761 Markham Road,Toronto,ON,M1B 1V4,43.820515612600005,-79.24589841689999,4.0,7,"Specialty Food, Food, Bakeries",,True,,,,,False,1.0,,,,,
221,h8bJb1dIwPmUGiqstCy7lw,Apalla,811 Queen Street W,Toronto,ON,M6J,43.6460848,-79.4090059,4.0,36,"Restaurants, Indian",u'no',True,u'beer_and_wine',True,True,False,True,2.0,u'casual',u'quiet',False,True,True
222,OP9iJKhKQ39PJnhk0G_ZrA,McDonald's,3030 Don Mills Road E,Toronto,ON,M2J 3C1,43.785354096199995,-79.3512418086,3.0,5,"Fast Food, Restaurants, Burgers",'free',True,'none',True,False,False,False,1.0,'casual','average',True,True,True
223,iByQmTmTdO7hP4n1grSSWQ,Rikishi Japanese Restaurant,833 Bloor Street W,Toronto,ON,M6G 1M1,43.662417100000006,-79.4228715,4.0,37,"Japanese, Restaurants",u'no',True,u'beer_and_wine',True,True,False,False,2.0,u'casual',u'quiet',False,False,True
224,LicRxsh4jX9NZEiO_e5R7w,Royal York Meat Market,392 Royal York Road,Toronto,ON,M8Y 2R3,43.618955299999996,-79.49976109999999,3.0,8,"Food, Specialty Food, Meat Shops",,False,,,,,,2.0,,,,,
225,9yrAfE46k-_kqg4ULHu8Vw,Little Piggy's,469 Bloor Street W,Toronto,ON,M5S 1X9,43.6659576268,-79.4067151693,4.0,132,"Korean, Barbeque, Restaurants",u'free',True,u'beer_and_wine',False,False,False,False,2.0,'casual','average',False,True,True
226,wPxQQbwXfqnJEMirpwcPnw,Weston Favourites,1986 Weston Road,Toronto,ON,M9N 1W8,43.7008781042,-79.5193493081,3.5,3,"Food Delivery Services, Italian, Coffee & Tea, Restaurants, Food, Sandwiches, Pizza",,True,,,False,,True,1.0,'casual',,,True,True
227,i7_JPit-2kAbtRTLkic2jA,John & Sons Oyster House,56 Temperance Street,Toronto,ON,M5H,43.6504156,-79.3817483,4.0,86,"Seafood, Restaurants",u'no',True,u'beer_and_wine',False,True,False,False,3.0,'casual',u'average',True,True,False
228,jAep5-Dl0PkvAiW96YLRCQ,Vivo Pizza + Pasta,75 Billy Bishop Way,Toronto,ON,M3K 2C8,43.733244309899995,-79.4508890435,2.5,5,"Specialty Food, Restaurants, Italian, Pizza, Food, Pasta Shops",,,,,,,True,,,,,,
229,5SiHMFPhwuWZ4VaZB13Hzw,Poutini's House of Poutine,617 King Street W,Toronto,ON,M5V 1M5,43.6441190136,-79.4009630755,4.0,69,"Poutineries, Restaurants",'no',True,u'none',True,False,False,False,1.0,'casual',u'average',False,False,True
230,mHvRAE2OrDRPW8y-m3mVaw,Real Canadian Superstore,825 Don Mills Road,Toronto,ON,M3C 1V4,43.72228460979999,-79.337485372,3.0,37,"Food, Grocery",,True,,True,,,,2.0,,,,,
231,4ayG6T0vptCZlaroD1aYeg,Black Moon Bar & Lounge,67 Richmond Street W,Toronto,ON,M5H 2S9,43.650938399999994,-79.3819568,2.5,9,"Bars, Food, Lounges, Beer, Wine & Spirits, Nightlife",,,u'full_bar',,,False,,2.0,,u'loud',False,True,
232,uWbmDMJcuxVgryNihVx3rw,Starbucks,30 Carlton Street,Toronto,ON,M5B 2A1,43.661712895600004,-79.38110399989999,3.5,10,"Cafes, Food, Coffee & Tea, Restaurants",u'free',True,u'none',True,False,False,False,2.0,u'casual',u'average',False,True,False
233,oIbxs2YL399SGXdcScyVPg,7-Eleven,1390 Weston Road,Toronto,ON,M6M 4S2,43.6910315,-79.50126740000002,2.5,3,"Coffee & Tea, Convenience Stores, Food",,,,,,,,,,,,,
234,NCNzbbPD_UyWLa8xr07bfg,The Chopping Block Meats,2256 Queen Street E,Toronto,ON,M4E 1G2,43.673131899999994,-79.28653670000001,3.0,4,"Specialty Food, Meat Shops, Food, Grocery",,,,True,,,,2.0,,,,,
235,gy5pr5bFAjOL5rERSdMCLg,The Keg Steakhouse + Bar - York Street,165 York Street,Toronto,ON,M5H 3R8,43.6499945,-79.3839517,4.0,229,"Restaurants, Steakhouses, Nightlife, Seafood, Bars",u'free',True,u'full_bar',False,True,True,False,3.0,u'casual',u'average',True,True,True
236,OJ6zfenoK-eBNI7vvNrOsg,Fieramosca,36A Prince Arthur Avenue,Toronto,ON,M5R 1A9,43.6695529,-79.397355,4.5,84,"Italian, Restaurants",'no',True,u'full_bar',True,True,True,False,3.0,u'dressy',u'quiet',False,True,False
237,-tyCz-XsYTKfTWAVT2HW1g,Basil Box,"105 The Pond Road, Unit R30",Toronto,ON,M3J 2S5,43.769594399999995,-79.5018918,4.0,6,"Gluten-Free, Thai, Vietnamese, Restaurants",,True,u'none',False,False,False,True,,,,False,,
238,LkfHWBf0V4joCAWV7hLU3A,LCBO - Chinatown,335 Spadina Ave,Toronto,ON,M5T 2E9,43.654855700000006,-79.3983203,2.5,12,"Beer, Wine & Spirits, Food",,True,,True,,,,2.0,,,,,
239,Ai4n7V09AEvMHVbY_6bCoA,Tim Hortons,733 Kipling Avenue,Toronto,ON,M8Z 5G5,43.6264469678,-79.5287147393,2.5,3,"Restaurants, Cafes",'free',True,'none',True,False,False,False,1.0,'casual',u'average',True,False,False
240,_zV-v1iMDIs4bjVuN_fL5A,Saladishes,4 Manor Road E,Toronto,ON,M4S 1P8,43.7026639424,-79.3971902198,4.5,5,"Falafel, Mediterranean, Salad, Soup, Lebanese, Middle Eastern, Sandwiches, Restaurants",u'free',True,u'none',True,True,True,True,1.0,,,False,True,True
241,5oVIydJLDwm9chThPU6zIA,Kale,2366 Yonge Street,Toronto,ON,M4P 2E6,43.7087974,-79.3987963,3.5,34,"Restaurants, Vegan, Vegetarian",u'no',True,u'none',,False,False,False,2.0,u'casual',u'quiet',False,False,True
242,PlNwT37ZahtL-3GRHQ7mVg,Cardinal Rule,5 Roncesvalles Avenue,Toronto,ON,M6R 2K2,43.6390827,-79.4460771,3.5,120,"Restaurants, American (Traditional), Diners",u'free',True,u'full_bar',True,True,False,False,2.0,u'casual',u'average',False,True,True
243,hFJhkaTIT7hfqXZ8MvnqLg,Rob's No Frills,"345 Bloor Street E, Unit 1A",Toronto,ON,M4W 3J6,43.6718021,-79.3787064,3.5,19,"Seafood Markets, Food, Specialty Food, Bakeries, Grocery",,False,,True,,,False,2.0,,,,,
244,FySLcpQNaDK_wrKmZA02cw,Locus144,"144-171 East Liberty Street, Unit 144",Toronto,ON,M6K 3P6,43.638172999999995,-79.417677,4.5,16,"Nightlife, Lounges, Bars, Sandwiches, Italian, Restaurants",'free',True,u'full_bar',True,False,,,2.0,'casual',u'very_loud',,True,False
245,84JCu-4LvE6SDAglrJztGA,Rabba Fine Foods,126 Simcoe Street,Toronto,ON,M5H 4H1,43.6492376,-79.3868224,3.0,12,"Grocery, Food",,True,,True,,,,2.0,,,,,
246,ywOmX52d7ncDxNpaQBDETA,Lahori Tarka,846 Markham Road,Toronto,ON,M1H 2Y2,43.7675222,-79.2289379,4.0,3,"Vegetarian, Restaurants, Pakistani, Halal",,,,,,,,,,,,,
247,RYha10Ic8AbHqJ9K08SOag,Suckers Candy,450 Danforth Ave,Toronto,ON,M4K 1P4,43.70018579999999,-79.4689467,3.5,8,"Candy Stores, Food, Specialty Food",,,,,,,,3.0,,,,,
248,ft5LUuDwmS8ONnI7AooLjQ,The Mad Italian,589 College Street,Toronto,ON,M6G 1B2,43.655200799999996,-79.4135,4.0,25,"Food, Restaurants, Ice Cream & Frozen Yogurt, Italian, Desserts",u'no',True,u'full_bar',,,True,,,u'casual',,False,True,True
249,CJKgffwOSqZ7WpKVruA0xQ,Flock,97 Harbord Street,Toronto,ON,M5S 1G4,43.662574,-79.403622,3.5,53,"Restaurants, Food, Canadian (New), Salad",'free',True,u'full_bar',True,True,True,True,2.0,'casual',u'average',False,True,True
250,rVdadAcPeUXjcIHxoO8cGQ,Dukem Restaurant,950 Danforth Avenue,Toronto,ON,M4J 1L9,43.680377899999996,-79.33815990000001,4.0,22,"Restaurants, Ethiopian",,True,u'full_bar',,True,True,False,2.0,u'casual',u'quiet',True,True,True
251,03DvzzcB5ze7lacYwZbH8A,Dr Generosity,2197 Bloor St W,Toronto,ON,M6S 1N2,43.65134570000001,-79.47529370000001,3.5,70,"Breakfast & Brunch, Bars, Nightlife, Restaurants, Pubs",,True,u'full_bar',,True,True,False,2.0,u'casual',u'average',False,True,True
252,Xdq85F77l3obo0SfuNtNQA,Switch,55 Colborne Street,Toronto,ON,M5E 1C6,43.6490711,-79.3746787,2.0,3,"Restaurants, Dance Clubs, Canadian (New), Nightlife",,,,,,,,,,,,,
253,-hXocgx4xqs9dv_l0jiZZg,Rawlicious,785 Bathurst Street,Toronto,ON,M5S 0B7,43.6646402,-79.41086999999999,4.5,9,"Food, Vegan, Juice Bars & Smoothies, Salad, Gluten-Free, Vegetarian, Desserts, Restaurants",u'no',True,u'none',True,,False,False,2.0,u'casual',u'quiet',False,True,True
254,WRj8rLeJpU49wqU9EmZLEg,Fancy Franks,326 College Street,Toronto,ON,M5T 1S3,43.6576393,-79.40264509999999,3.5,108,"Donuts, Burgers, Poutineries, Fast Food, Hot Dogs, Food, Restaurants",u'no',True,u'none',True,False,True,True,2.0,u'casual',u'average',False,True,True
255,R9XTURwJlnuYLUpVrI7qgg,Booster Juice,2420 Bloor Street W,Toronto,ON,M6S 1P9,43.649765,-79.4837045,3.0,5,"Shopping, Nightlife, Food, Juice Bars & Smoothies, Health Markets, Specialty Food",'no',True,,True,,,,2.0,,,,,
256,3MZ_H6D9jQFX1tBUIh_Iiw,Simply Thai Cuisine,2253 Bloor Street W,Toronto,ON,M6S 1N8,43.65067620000001,-79.4775585,3.0,44,"Thai, Restaurants",u'free',True,u'full_bar',True,True,True,True,2.0,u'casual',u'quiet',False,True,False
257,5WQzKY_Bo_ki0CfBxXgyZA,Krazy Roll,84 Marine Parade Drive,Toronto,ON,M8V 0B7,43.6257169,-79.47718520000001,4.0,23,"Restaurants, Japanese, Salad, Sushi Bars",'no',True,'none',True,True,False,True,2.0,u'casual','average',False,True,True
258,eTSDLmdRkhynYxSQlDqS9g,Aroma Espresso Bar,535 Queen Street W,Toronto,ON,M5V 2B4,43.647930200000005,-79.3994438,3.0,36,"Restaurants, Cafes",u'free',True,'none',True,False,True,False,1.0,'casual','quiet',False,True,True
259,UGG8EIfEfAIbyGhgLIX7Mw,Thai Bright,109 McCaul Street,Toronto,ON,M5T 3K5,43.654110935,-79.39114509640001,3.5,12,"Restaurants, Thai",'no',True,'none',True,False,False,False,1.0,'casual','average',False,True,True
260,lEaL5O5n9Sni6RiwXv42Ww,Soulas Modern Greek Cuisine,500 A Danforth Avenue,Toronto,ON,M4K 1P6,43.6782533847,-79.3488195911,4.5,3,"Greek, Restaurants",,,,,,,,,,,,,
261,r395lMbm1ihAQ2sMOcFKow,Mary MacLeod's Shortbread,639 Queen Street E,Toronto,ON,M4M 1G4,43.6581129,-79.35231999999999,4.5,36,"Bakeries, Food",,False,,False,,,False,2.0,,,,,
262,6c0lS8VP4EXyMefnJgvphg,Rowe Farms,2230 Bloor St W,Toronto,ON,M6S 1N6,43.6512772,-79.4767738,3.5,8,"Meat Shops, Specialty Food, Food",,,,True,,,,3.0,,,,,
263,DAX9vgyXP9ywTFdHzPT8IA,Pippins Tea Company,2098 Queen Street E,Toronto,ON,M4E 1E1,43.6710563,-79.29600040000001,4.0,4,Food,,,,,,,,,,,,,
264,XuJNM9O8NNQ8KA7qMYqkyg,Grace O'Malley's,14 Duncan Street,Toronto,ON,M5H 3G8,43.6476863,-79.38858540000001,2.5,96,"Bars, Nightlife, Dance Clubs, Pubs, American (Traditional), Restaurants",u'free',True,u'full_bar',True,True,True,False,2.0,'casual',u'loud',True,True,False
265,Wgx9dIK-EPS9xl62fSZlFw,Café Taste,1330 Queen St W,Toronto,ON,M6K,43.6416745,-79.4316079,3.5,9,"Bars, Wine Bars, Restaurants, Tapas Bars, Nightlife",,False,u'full_bar',,True,True,False,3.0,u'casual',,,True,False
266,Z5kjUEm1A18l864gb3XA8A,Town Crier Pub,115 John St,Toronto,ON,M5V 2E2,43.6481433882,-79.3901514675,4.0,181,"Restaurants, Nightlife, Pubs, Bars",'no',,u'full_bar',True,False,True,,2.0,,u'average',False,True,
267,fTPwq2d2fsUm46_3IKhG-g,Avenue Diner,222 Davenport Rd,Toronto,ON,M5R 1J6,43.6747594,-79.3969119,3.0,19,"Restaurants, Diners",u'no',True,u'none',True,False,False,False,2.0,u'casual',u'quiet',False,False,True
268,3S7dSRPWXls4F4mm--rdFA,Squish Candy,"176 Yonge Street, Unit B1560",Toronto,ON,M5C 2L7,43.6517906,-79.38016879999999,4.0,18,"Shopping, Flowers & Gifts, Desserts, Specialty Food, Candy Stores, Gift Shops, Food",,True,,True,,,,3.0,,,,,
269,ldUwLnF4grOEXE-LXN94QA,Kalyvia On the Danforth,420 Danforth Avenue,Toronto,ON,M4K 1P3,43.6777591,-79.3509223,3.5,55,"Greek, Mediterranean, Restaurants",u'free',True,u'full_bar',False,True,True,True,2.0,u'casual',u'average',False,True,True
270,l8zJEkw4cNOcNzaLR_Gctw,Tandori,777 Bay St,Toronto,ON,M5G 2B3,43.6604836,-79.38445820000001,1.5,13,"Indian, Restaurants",u'no',True,u'none',,False,False,True,1.0,u'casual',u'average',False,True,True
271,LOEZ8zDGly7s-laA1OBIEw,Bricco Wine Bar,3047 Dundas Street W,Toronto,ON,M6P,43.6654047,-79.47101440000002,3.5,48,"Wine Bars, Nightlife, Bars, Italian, Restaurants",,False,u'full_bar',True,True,False,False,3.0,u'casual',u'average',False,True,False
272,zCqpHq-eDSRqXn9VBtoVcQ,Quattro e Quattr8,2059 Yonge Street,Toronto,ON,M4S 2A2,43.702178,-79.3971311,4.0,11,"Food, Coffee & Tea, Italian, Pizza, Restaurants",u'no',True,u'beer_and_wine',False,True,False,False,2.0,u'casual',u'average',True,True,True
273,cyeTxRvsxMhD8B_fpTFw6A,D & Y Market,1913 Yonge Street,Toronto,ON,M4S 1Z3,43.6985265,-79.3964717,4.0,4,"Grocery, Food",,,,,,,,3.0,,,,,
274,fJAWn77rOLON08wli_AQ2Q,Burger King,1607 Birchmount Road,Toronto,ON,M1P 2J3,43.7638012,-79.29122679999999,3.0,4,"Fast Food, Burgers, Restaurants",u'free',True,u'none',,False,,False,1.0,'casual',u'average',True,,True
275,L4wjHHeoJ33KK59i3xpOqw,Asahi Sushi,640 Church St,Toronto,ON,M4W 3T5,43.6699469,-79.38290009999999,3.0,56,"Korean, Japanese, Restaurants, Sushi Bars",u'free',True,u'full_bar',True,True,True,True,2.0,u'casual',u'quiet',False,True,True
276,OBXZQtAe1wSJSJ6uPkkUtg,Golden Wheat Bakery & Pastry,652 College Street,Toronto,ON,M6G 1B8,43.655156,-79.4162408,3.5,30,"Desserts, Food, Patisserie/Cake Shop, Bakeries",,True,,True,,,False,1.0,,,,,
277,3HwLDQhV8nS4mgWFtRMA5A,Striker,31 St Joseph Street,Toronto,ON,M4Y 1J8,43.6656779452,-79.386706464,2.5,15,"American (Traditional), Gay Bars, Bars, Lounges, Sports Bars, Nightlife, Restaurants",u'free',,u'full_bar',True,True,False,,2.0,,u'average',True,True,
278,Xt2aQqrMzuABBvb82sK-Hw,McDonald's,121 Front Street E,Toronto,ON,M5A 4P7,43.649467200000004,-79.3704014,1.5,10,"Burgers, Restaurants, Fast Food",'free',True,u'none',True,False,True,False,1.0,u'casual',u'average',True,False,True
279,op0GPkK8YtpTQxSq80lEpw,Pizza e Pazzi,672 St. Clair Avenue W,Toronto,ON,M6C 1A9,43.682035299999995,-79.4254574,3.5,20,"Restaurants, Italian",u'no',True,'beer_and_wine',True,True,False,False,2.0,u'casual','average',False,True,True
280,wL5yGvlL1zXZ4EPJ8d0hIA,Rolltation,2291 Yonge Street,Toronto,ON,M4P 2C6,43.7075497,-79.398122,4.0,81,"Food, Fast Food, Poke, Sushi Bars, Restaurants, Asian Fusion",'free',True,u'none',True,False,False,True,2.0,'casual',u'average',False,True,True
281,_BJ2lBc1TWwIfxNzXbaaBA,District 28 Bar Bistro,28 Logan Avenue,Toronto,ON,M4M 2M8,43.655266499999996,-79.3405143,3.0,11,"Bars, Sandwiches, Breakfast & Brunch, Event Planning & Services, Burgers, Restaurants, Cafes, Nightlife, Venues & Event Spaces",u'free',True,u'none',True,True,True,True,2.0,'casual',u'average',True,True,True
282,MSk0zUrks56mv0nHarfcAg,Mac's Convenience Stores,144 Dundas St W,Toronto,ON,M5G 1C3,43.6555706,-79.3850128,3.0,3,"Convenience Stores, Food",,,,True,,,,1.0,,,,,
283,y166Ve7c7y2EnnePytr71Q,1915 Lan Zhou Ramen,185 Dundas Street W,Toronto,ON,M5G 1C7,43.654996395,-79.38679615310001,3.5,77,"Ramen, Chinese, Restaurants, Japanese, Noodles",u'free',True,u'none',False,False,False,True,1.0,u'casual','average',False,True,True
284,fe6YW5wLAeWQBATPf494DQ,Music Garden Cafe,466 Queens Quay W,Toronto,ON,M5V 3Y2,43.637664799999996,-79.3931067,4.0,33,"Coffee & Tea, Food, Cafes, Restaurants, Desserts",u'free',True,u'none',True,True,True,False,2.0,'casual',u'quiet',False,False,True
285,a7Zcx-qVTLrMvBaod7MXbw,Porto Rotisserie House,1370 St Clair Avenue W,Toronto,ON,M6E 1C4,43.67662,-79.44975579999999,3.5,7,"Restaurants, Seafood, Portuguese",'no',True,'full_bar',True,True,True,False,2.0,'casual','average',True,True,True
286,1pXyaPUXMqZyxW1Ew7BLUg,Guirei Japanese Restaurant,600 Queens Quay W,Toronto,ON,M5V 3M3,43.6366084,-79.3973546,3.0,61,"Japanese, Restaurants, Sushi Bars",u'free',True,u'beer_and_wine',True,True,True,True,2.0,u'casual',u'average',True,True,True
287,fuukQ0bggEEBKVYn_e3d7Q,Nook,469A King Street W,Toronto,ON,M5V 1K4,43.644829,-79.396777,4.0,26,"Caterers, Event Planning & Services, Restaurants, Cafes, Breakfast & Brunch, Sandwiches",,True,'none',True,False,True,True,2.0,'casual',u'average',False,True,True
288,b6IjUr2azLh0AsWDjus4zg,The Berkeley Cafe,141 Berkeley Street,Toronto,ON,M5A 2X1,43.654976500000004,-79.3653819,4.0,9,"Restaurants, Food, Cafes, Coffee & Tea",u'no',,,,,True,False,2.0,,u'average',,True,True
289,vmQKPYE46edrPQDc1vBMDA,City Fried Chicken and Pizza,990 Danforth Avenue,Toronto,ON,M4J 1L9,43.68048889999999,-79.3375786,4.0,15,"Restaurants, Fast Food, Pizza",,True,u'none',True,False,False,False,1.0,u'casual',u'quiet',False,True,True
290,_1pJGqX6zwElaiaKGjvQ4A,Jerkup Central,"2201 Brimley Road, Unit #5",Toronto,ON,M1S 4N7,43.789956321999995,-79.26891592390001,4.5,8,"Gluten-Free, Restaurants, Caribbean, Event Planning & Services, Caterers",u'no',True,u'none',True,False,False,True,,,,False,,
291,oYCx5gO4KkkgYPnglSkk5g,PROP,770 St Clair Ave W,Toronto,ON,M6C 2Z1,43.68128239999999,-79.4287282,3.0,20,"Italian, Restaurants",u'no',True,u'full_bar',,True,True,False,2.0,u'dressy',u'average',False,True,False
292,dKVwC-UJDFzfOci3xDs0jQ,Spring Rolls Delivery,240 Queen Street W,Toronto,ON,M5V 1Z7,43.6500615,-79.39064909999999,2.5,7,"Restaurants, Thai, Chinese, Asian Fusion",,True,,,,False,,2.0,u'casual',u'loud',False,False,
293,EgrW38gqGcNH2tKdRd_XZQ,Fred's Not Here,321 King St W,Toronto,ON,M5V 1J5,43.646116299999996,-79.39079670000001,3.0,182,"American (New), Canadian (New), Restaurants",u'no',True,u'full_bar',False,True,True,False,3.0,u'casual',u'average',False,True,False
294,jIEZmUZUjmTC0kn09LtJEg,Nolbu,3 Elmhurst Avenue,Toronto,ON,M2N 1R3,43.762964399999994,-79.41197340000001,3.0,40,"Ethnic Food, Sushi Bars, Restaurants, Specialty Food, Food, Korean",u'no',True,u'beer_and_wine',True,True,False,False,2.0,'casual','average',True,True,True
295,dht_FLsWVuO6TJeuLqY97g,A&W,2858 Dundas Street W,Toronto,ON,M6P 1Y8,43.665634000000004,-79.461398,3.0,5,"Burgers, Restaurants, American (Traditional), Fast Food",u'no',True,u'none',True,False,False,False,2.0,'casual',u'average',False,True,True
296,prNo0ZAdpHKJaZCyvTBruQ,Second Cup,"St. Michael's Hospital, 30 Bond Street",Toronto,ON,M5B 1W8,43.6528396606,-79.3773727417,2.5,3,"Food, Coffee & Tea",'free',True,,True,,False,,2.0,,,,,
297,3D-FJxp8bsBzm3zJVqs92g,OverEasy Restaurant,208 Bloor Street W,Toronto,ON,M5S 3B4,43.66865870000001,-79.395839,3.0,149,"Restaurants, Breakfast & Brunch",u'free',True,u'beer_and_wine',True,True,True,False,2.0,u'casual',u'average',True,True,True
298,jrQbdVbEgg7bcOEySAKKMg,What a Bakery,"875 Milner Ave, Ste 114",Toronto,ON,M1B 5N6,43.7985357,-79.1961513,3.5,6,"Food, Bakeries",,,,,,,,2.0,,,,,
299,GsG8MTxo0Qp_WQCT33Bz5A,Ottway Herbs & Vitamins,309 Danforth Ave,Toronto,ON,M4K 1N7,43.677134,-79.35396999999999,3.0,4,"Food, Health Markets, Specialty Food, Shopping",,,,True,,,,2.0,,,,,
300,2ZCNWSfOacFASdVR99EuYg,Tim Hortons,2 Bruyeres Mews,Toronto,ON,M5V 0G7,43.6374408,-79.400311,2.0,4,"Food, Coffee & Tea, Bakeries",,True,,,,,False,1.0,,,,,
301,RgDH0NZHGT8i6gdklxp0GQ,Koek Koek,2685 Yonge Street,Toronto,ON,M4N 2H8,43.7168348169,-79.400094375,3.5,5,"Sandwiches, Salad, Restaurants, Cafes",,,,,True,,,,,,,,
302,4zlztWU9_CqRsFwzvDqAjQ,Yoga Tree,123 Dundas Street W,Toronto,ON,M5G 1C4,43.655336600000005,-79.3844809,3.5,28,"Food, Fitness & Instruction, Yoga, Arts & Entertainment, Trainers, Juice Bars & Smoothies, Active Life",u'free',,,True,,,,3.0,,,,,False
303,_qh5RDI84nVGwZiYDvCoyw,Al Pastor,2982 Dundas Street W,Toronto,ON,M6P 1Z3,43.665455,-79.468919,3.0,51,"Restaurants, Mexican",,True,u'none',True,False,False,True,2.0,u'casual',u'average',False,True,True
304,fjta0a2h-LYWOWBgJGVpwg,Thai Shan Inn,2404 Dufferin Street,Toronto,ON,M6E 3S8,43.6969621382,-79.4510810184,3.0,31,"Restaurants, Thai",u'no',True,u'beer_and_wine',True,True,False,True,2.0,u'casual',u'quiet',False,True,False
305,3a7Qby_IX7sU7O6ZsQZeOQ,RH Courtyard Cafe,3401 Dufferin Street,Toronto,ON,M6A 2T9,43.7246843,-79.4541729,4.0,82,"Home & Garden, Restaurants, Canadian (New), American (Traditional), Mediterranean, Cafes, Furniture Stores, Shopping",'no',True,'full_bar',,False,False,False,2.0,u'casual',u'average',False,True,True
306,HOOitK8EMpTaY9bVpp6ZfA,Cafe Vite,"5418 Yonge Street, Unit 19",Toronto,ON,M2N 6X4,43.7756161872,-79.4147684053,4.5,31,"Food, Sandwiches, Ice Cream & Frozen Yogurt, Vietnamese, Cafes, Restaurants",u'free',True,u'none',True,True,False,True,1.0,,,False,False,True
307,2BZmK_JB2WVYxdQvTcbyOg,Tim Hortons,"Scarborough Town Centre, 300 Borough Drive",Toronto,ON,M1P 4P5,43.775556149399996,-79.2546844482,3.0,5,"Food, Coffee & Tea",u'free',True,,True,,False,,2.0,,,,,
308,AskVA_OPP0cNXrpyfuawBw,Star Lobster Seafood Market,3280 Midland Avenue,Toronto,ON,M1V 4W8,43.805791299999996,-79.2888483,3.5,8,"Seafood Markets, Food, Specialty Food",,True,,False,,,,2.0,,,,,
309,v-z5Tw5ds2sEvtk3Kj5x4w,Yupdduk,24-30 Finch Avenue W,Toronto,ON,M2N,43.779326399999995,-79.4175692,3.0,29,"Imported Food, Food, Korean, Restaurants, Ethnic Food, Specialty Food",'no',True,,False,False,False,False,2.0,'casual',u'average',False,False,True
310,Vl7knG5rR45zT97JdkCmMQ,Corrado's Authentic Italian Cuisine,471 Cosburn Avenue,Toronto,ON,M4J 2N5,43.6928272,-79.3339954,4.0,5,"Pizza, Italian, Sandwiches, Restaurants",,True,u'none',,False,False,True,2.0,u'casual',u'quiet',True,True,True
311,wYFQMJytgwoMuan0Aa4ByA,Ivory Thailand,81 Church St,Toronto,ON,M5C 2G2,43.6517653,-79.37501850000001,3.5,11,"Restaurants, Thai",,True,u'full_bar',,True,False,,2.0,u'casual',,,True,True
312,-ssULZ_nOuQfrlFv0NXJIQ,Empire Grill,1100 Eglinton Avenue W,Toronto,ON,M6C 2E2,43.699788833,-79.43186626149999,3.5,14,"Nightlife, Wine Bars, Thai, Restaurants, Portuguese, Seafood, Chicken Shop, Barbeque, Bars, Indian",u'free',True,u'none',True,False,False,True,2.0,'casual',,False,True,True
313,nwQq25Nuf-AmtHT9l0BXIw,Lula Lounge,1585 Dundas Street W,Toronto,ON,M6K 1T9,43.6497277,-79.4345802,3.0,47,"Event Planning & Services, Breakfast & Brunch, Dance Clubs, Restaurants, Music Venues, Nightlife, Latin American, Arts & Entertainment, Venues & Event Spaces",u'no',False,u'full_bar',True,True,False,False,2.0,'casual',u'loud',False,True,False
314,X5mxIQ1Ry_58QzuyUxV_Eg,Joyous Thai,"1500 Royal York Road, Unit 20 21",Toronto,ON,M9P 3B6,43.6916836,-79.5319995,2.5,8,"Thai, Restaurants",,,,,,,,2.0,,,,,
315,_BAewGvIIzrNJtCzViIvSQ,Omai Restaurant,3 Baldwin Street,Toronto,ON,M5T 1L1,43.6561157,-79.39238409999999,4.0,52,"Restaurants, American (Traditional), Japanese",u'free',False,u'beer_and_wine',True,True,False,False,2.0,'casual',u'average',False,False,False
316,J0O7KtzHsEiApzXBQRDcLg,La Prep,77 King Street W,Toronto,ON,M5K 1A1,43.6478979,-79.3820355,3.0,6,"Salad, Sandwiches, Breakfast & Brunch, Restaurants",,True,,,False,,False,2.0,'casual',,,False,False
317,dVz19OnbCfi0pjlSNV0bgQ,Rebekha Sushi 2 Go,883 Eglinton W,Toronto,ON,M6C 2C1,43.700675097600005,-79.4268789142,4.5,3,"Sushi Bars, Japanese, Restaurants, Food Delivery Services, Food",'no',True,'none',,False,False,True,2.0,'casual',,False,False,True
318,cdGF32D1_kRnsMjLytguoA,Muckish Irish Pub,74 Hymus Road,Toronto,ON,M1L 4B2,43.72004129999999,-79.284063,4.0,10,"Irish Pub, Beer, Wine & Spirits, Pubs, Food, American (New), Bars, Irish, Nightlife, Restaurants, Canadian (New)",u'no',True,u'full_bar',True,False,True,False,2.0,u'casual',u'average',True,True,True
319,jaw8mJdGldQmnH0Y8Qi3Tw,Dundas West Fest,Dundas W,Toronto,ON,M6P,43.6653941,-79.4632688,3.5,4,"Local Flavor, Arts & Entertainment, Food, Festivals, Street Vendors",,,,,,,,,,,,,True
320,3uIXuw878fNjxZ2Li1diFg,The Hogtown Vegan,1056 Bloor St. W,Toronto,ON,M6H 1M3,43.6605669,-79.4325733,4.0,384,"Restaurants, Southern, Beer, Wine & Spirits, Food, Vegan",u'no',True,u'full_bar',True,False,False,False,2.0,u'casual',u'average',False,True,True
321,fN_I3jP7RD2llubTvhXtKQ,The Good Fork,2432 Bloor Street W,Toronto,ON,M6S 1P9,43.64956970000001,-79.4840826,4.0,289,"Canadian (New), Breakfast & Brunch, Restaurants, Diners, Cafes",u'no',True,u'full_bar',True,True,True,False,2.0,u'casual',u'average',False,True,True
322,eLkNF-w5upg3OsQYG-GBRA,Cloud Free Agent Espresso Bar,968 Queen St W,Toronto,ON,M6J 1G9,43.64458629999999,-79.4174048,3.5,11,"Coffee & Tea, Juice Bars & Smoothies, Restaurants, Food, Internet Cafes, Breakfast & Brunch",u'free',True,u'none',,False,False,False,1.0,u'casual',u'quiet',False,False,False
323,LrrJW6ejsVL7hADfFy87Eg,EatThai,5195 Yonge Street,Toronto,ON,M2N 5P7,43.7704408,-79.41298590000001,3.5,30,"Restaurants, Thai",'no',True,'beer_and_wine',False,True,False,True,2.0,u'casual',u'average',False,True,True
324,Ri_K4vaiRNQjlyutXgadog,California Thai,5150 Yonge Street,Toronto,ON,M2N 6L6,43.7686976,-79.4131633,2.0,7,"Restaurants, Chinese, Thai, Fast Food",,,,,False,,False,1.0,'casual',,False,,False
325,d-McqjAh8i9f23RI_U3Y2A,Sunshine Caribbean Restaurant,937 Danforth Avenue,Toronto,ON,M4J 1L8,43.68013010000001,-79.33801329999999,3.5,3,"Caribbean, Restaurants",,True,,,,False,,,u'casual',u'loud',,,
326,59roFbMHNSt6H3UbOO2HmA,Better than Yia Yia's,,Toronto,ON,M3B 3B5,43.751633399999996,-79.36433170000001,5.0,5,"Restaurants, Caterers, Mediterranean, Greek, Event Planning & Services",u'no',True,u'none',True,False,True,True,2.0,,,False,,
327,hr86GarswrDgD9SpLtD9hQ,The Croissant Tree,60 Yonge St,Toronto,ON,M5E 1H5,43.6483468,-79.3778374,3.5,10,"Food, Coffee & Tea",u'free',True,,,,False,,1.0,,,,,
328,U0S6YqfxHWWJBWPwjUXcLQ,Wendy's,4 Lebovic Avenue,Toronto,ON,M1L 4V9,43.7261916,-79.291823,3.0,4,"Burgers, Fast Food, Restaurants",,True,,True,False,False,False,1.0,'casual',,False,True,True
329,0cITagiY3ytdRh6shZInxw,Truly Thai Cuisine,2364 Yonge Street,Toronto,ON,M4P 2E6,43.7086903,-79.39902740000001,2.5,7,"Restaurants, Thai",,True,u'full_bar',,True,False,True,2.0,'casual',u'quiet',True,True,True
330,dDYbnQHBi0dqZH2kmiNaSA,Pho Jade,1208 Bloor Street W,Toronto,ON,M6H 1N1,43.6593265,-79.43847729999999,3.5,36,"Vietnamese, Restaurants",u'no',True,u'beer_and_wine',True,True,False,True,1.0,u'casual',u'quiet',True,True,True
331,VADsDteqi8ac5-egcloI3w,Elite Restaurant & Banquet Hall,1118 Finch Avenue W,Toronto,ON,M3J 3J4,43.7672739,-79.4747079,4.0,4,"Russian, Restaurants",,False,u'full_bar',,True,False,False,4.0,u'dressy',u'loud',False,True,False
332,s_nmAD66jFKgMs1ZrUvaYA,Shawarma Station,1618A Bloor St W,Toronto,ON,M6P 1A6,43.655650099999995,-79.4556011,3.0,4,"Middle Eastern, Restaurants",,True,,,,,,,,,,,
333,1LysYiRg6lvwb76WHMfIyw,North Stars Bar & Grill,5433 Yonge Street,Toronto,ON,M2N 5R6,43.776520899999994,-79.4144396,3.0,9,"Bars, American (Traditional), Nightlife, Restaurants, Sports Bars",,False,,,,True,False,,,u'average',,True,False
334,Xz14uC3II_YWsmZhwuJ9Bw,Koricancha Restaurant,1885 Eglinton Avenue W,Toronto,ON,M6E 2J5,43.6951227,-79.4515712,4.5,10,"Restaurants, Lounges, Latin American, Karaoke, Peruvian, Bars, Nightlife",u'no',True,,,True,False,True,2.0,'casual',,,False,True
335,uHs_o3FH_JbLHhZotBkVrQ,The Iceman,782 Adelaide Street W,Toronto,ON,M6J 1B4,43.643962,-79.409343,4.0,3,"Food, Ice Delivery, Event Planning & Services, Local Services, Party Supplies",,,,,,,,,,,,,
336,8JA0UIv3uzjvFkP3IABXMQ,Marcheleo's Gourmet Marketplace,181 Eglinton Avenue E,Toronto,ON,M4P 1J4,43.7079592,-79.3918805,4.0,13,"Event Planning & Services, Coffee & Tea, Caterers, Grocery, Specialty Food, Farmers Market, Food",,True,,True,,,,2.0,,,,,
337,aO94Wsh2VzrgdCXu26OJEQ,The Greek Grill,128 O'Connor Drive,Toronto,ON,M4J 2S4,43.693571,-79.350145,4.0,66,"Mediterranean, Restaurants, Greek",'no',True,u'full_bar',True,True,True,True,2.0,u'casual',u'average',True,True,True
338,h0DBLA6OLptMv0HVanTAvA,Ali Baba's Middle Eastern Cuisine,113 Danforth Avenue,Toronto,ON,M4K 1N2,43.676485425799996,-79.3579816818,3.5,22,"Restaurants, Middle Eastern",'no',True,'none',True,False,False,False,1.0,'casual',u'average',False,False,True
339,rb6QPjjuogZ9_3S6oGsgGQ,White Elephant Restaurant & Bar,366 Queen Street E,Toronto,ON,M5A 1T1,43.655808493100004,-79.363685064,4.0,23,"Restaurants, Thai",'no',True,'full_bar',True,True,False,False,2.0,'casual','average',True,True,True
340,_HqZL3gK98-Q4ObAoyM1aw,Rose and Sons Swan,892 Queen Street W,Toronto,ON,M6J 1G3,43.6450406075,-79.414875227,4.0,47,"American (Traditional), Breakfast & Brunch, Restaurants",'free',True,,True,False,False,False,2.0,'casual',u'average',False,False,True
341,0gj8bpTF6I6T_C5xyBUafw,Arden Fast Food,"3833 Midland Ave, Suite 9C",Toronto,ON,M1N 3Z6,43.8139148,-79.2915342,3.0,4,"Food, Restaurants, Chinese",,,,,,,,1.0,,,,,
342,6Bb7FE_UzUXuO-wFINJP4A,Freta Enjera,831 Bloor Street W,Toronto,ON,M6G 1M3,43.6624268,-79.4228459,4.0,4,"Restaurants, Imported Food, Ethnic Food, Food, Specialty Food, Ethiopian, Convenience Stores",,True,,,,,,1.0,,,,,
343,UeyTFWMLCopiZQ9ZIfmXfA,Ici Bistro,18 St. Thomas Street,Toronto,ON,M5S 2C1,43.668808399999996,-79.3905524,3.0,3,"French, Restaurants",,False,,,True,,False,4.0,'formal',,,False,False
344,BN7KeClLq8DR-crgAImpcQ,Trinity Common,303 Augusta Avenue,Toronto,ON,M5T 2M2,43.656750878800004,-79.40305184569999,3.0,76,"Restaurants, Nightlife, Bars",'no',True,'full_bar',True,True,True,,2.0,,'loud',True,True,False
345,URGUzMJRhK5gLQKC4UztTQ,Taco bell,1338 Kennedy Road,Toronto,ON,M1P 2L6,43.7608579101,-79.2798697203,3.0,4,"Mexican, Restaurants, Fast Food",,,,,,,,,,,,,
346,FgdglZsn9jkkiuTIPOgaOw,UmJi,3113 Sheppard Avenue E,Toronto,ON,M1T 3J7,43.7766273,-79.3171808,3.0,32,"Barbeque, Buffets, Korean, Restaurants",u'no',True,u'beer_and_wine',True,True,False,False,2.0,'casual',u'average',True,True,True
347,Nj-FEhaIn4-VUYYyQ1aOfA,Fiesta Farms,200 Christie Street,Toronto,ON,M6G 3B6,43.6687237,-79.4207562,4.0,51,"Grocery, Food, Specialty Food, Fruits & Veggies",,True,'none',True,,,False,2.0,,,,,
348,U_SKqvm-dUtzDIrixCVdLw,Eating Garden Chinese Restaurant,43 Baldwin Street,Toronto,ON,M5T 1L1,43.6557848,-79.39370129999999,3.0,3,"Chinese, Food, Restaurants, Specialty Food, Ethnic Food",u'no',True,,,True,,,,u'casual',,,,
349,e9smQsCHC7-ghr_7fWz4Mw,Lamb Kebab - Savory Chinese Crepes,492-A Dundas Street W,Toronto,ON,M5T 1G9,43.6531496605,-79.3974486528,4.0,13,"Restaurants, Chinese",'no',True,,,False,,False,,u'casual',,,True,True
350,l_uAw0K2lkOsyVJATcnwsA,Spicy Mafia,181 College Street,Toronto,ON,M5T 1P7,43.658833200000004,-79.3942219,3.0,9,"Chinese, Hot Pot, Restaurants, Ramen, Japanese",u'free',True,u'none',True,False,False,False,2.0,'casual',,False,True,False
351,TsYqjhDuarNeT1k-mtovww,Pho Kimboss Bistro,1144B College Street,Toronto,ON,M6H 1B5,43.6523520518,-79.4330067501,4.0,3,"Restaurants, Thai, Vietnamese",,,,,,False,,,,,,,
352,i3oRRwl3RWOxKfTtiJbliw,BarBurrito - Gerrard,1000 Gerrard St E,Toronto,ON,M4M 3G6,43.669144,-79.3391627,3.0,6,"Mexican, Restaurants, Fast Food",,False,,,False,,,,,,,,
353,CPZwngSfv-5OpQ3iQZOrsQ,Tim Hortons,1277 York Mills Road,Toronto,ON,M3A 1Z5,43.7606862502,-79.32662986220001,2.5,3,"Sandwiches, Restaurants, Food, Breakfast & Brunch, Coffee & Tea",'free',True,,,False,False,False,1.0,'casual',,True,True,True
354,1GWSJbsVfKCPXIYPap6nIA,Oishii Japanese Ramen,3280 Midland Avenue,Toronto,ON,M1V 0C7,43.8060074142,-79.2881869152,2.0,4,"Japanese, Restaurants",u'free',,,,,False,,1.0,u'casual',u'quiet',,True,True
355,cDoo0Pf1d_P79Rq3ZNk-Mw,Kirei Sushi + Bar,81 Church Street,Toronto,ON,M5C 2G2,43.6515981379,-79.3748980667,3.5,56,"Japanese, Sushi Bars, Restaurants",u'free',True,u'full_bar',True,True,True,True,2.0,u'casual',u'quiet',True,True,True
356,yZsVStKgRul_oNjHsV99LQ,Kibo House Sushi and Cafe,701 Saint Clair Avenue  W,Toronto,ON,M6C 1B2,43.6814409,-79.4263448,3.0,3,"Restaurants, Coffee & Tea, Sushi Bars, Food",,True,,True,,False,,2.0,,,,True,True
357,0uIiaa8pCyNkw729NKOcBw,Foods For Life,2184 Bloor Street W,Toronto,ON,M6S 1N3,43.651778,-79.474727,4.5,15,"Vitamins & Supplements, Specialty Food, Food, Shopping, Health Markets",,False,,True,,,,1.0,,,,,
358,yUO7zPWGbumX42UzjbuBmw,Subway,548 Church Street,Toronto,ON,M4Y 2E1,43.6654189,-79.3810194,2.0,4,"Sandwiches, Restaurants, Fast Food",'no',True,'none',,False,False,False,1.0,'casual','quiet',False,False,False
359,bteXwVjvQAkymcl4ZXQBbQ,Amber Restaurant & Bar,119 Yorkville Ave,Toronto,ON,M5R 1C4,43.670637,-79.3930014,2.5,10,"Lounges, Bars, Restaurants, Nightlife",,False,,,False,,False,,,,,True,False
360,j28T6ZuP1mLHe3m36COOpQ,DaanGo Cake Lab,"3380 Midland Ave, Unit 11",Toronto,ON,M1V 5B5,43.8094524,-79.2902098,4.0,168,"Specialty Food, Food, Bakeries, Macarons, Desserts",,True,,True,,,False,2.0,,,,,
361,7p54EUi6PylEtmSyMdIstA,Smile Dessert,E113-3262 Midland Avenue,Toronto,ON,M1V 0C4,43.804592,-79.290014,2.0,37,"Restaurants, Hong Kong Style Cafe, Desserts, Food",u'free',True,,,True,False,False,1.0,,,,True,True
362,LOX4LFY1qNQWprcomZAgYA,Habibiz Restaurant & Cafe,1929 Kennedy Road,Toronto,ON,M1P 2L9,43.768105600000005,-79.2811922,2.5,23,"Restaurants, Middle Eastern",u'no',False,u'none',False,False,True,False,2.0,'casual',u'very_loud',True,True,False
363,yrlxHcc2OzN3-8-nTGzUbQ,Close To The Bone,929 Kingston Road,Toronto,ON,M4E,43.680189399999996,-79.2885952,5.0,10,"Food, Delis, Restaurants, Grocery",,,,,,,,2.0,,,,,
364,S5bNE4Pmin8OQUMOFod8bQ,Ciao Wine Bar,133 Yorkville Avenue,Toronto,ON,M5R 1C4,43.670475399999994,-79.3936453,3.0,126,"Nightlife, Italian, Restaurants, Wine Bars, Bars",u'no',False,u'full_bar',False,True,True,False,3.0,u'dressy',u'average',False,True,False
365,YHE1PS0mhFbwKJm8iJpcuQ,The Communal Mule,984 Dundas St W,Toronto,ON,M6J,43.6505326,-79.4152092,3.5,22,"Coffee & Tea, Food",u'free',,,,,True,,2.0,,,,,
366,gSPA67ulIn-u17ovvZ8aWw,Sobeys,2451 Danforth Avenue,Toronto,ON,M4C 1L1,43.6873925,-79.3038884,3.5,6,"Seafood Markets, Grocery, Food, Specialty Food",,True,,True,,,,2.0,,,,,
367,NOz8W_cUV3Dw5yLgFkKLGw,The Yellow Griffin,2202 Bloor St W,Toronto,ON,M6S 1N4,43.651438899999995,-79.475629,3.0,107,"Pubs, Bars, Restaurants, Burgers, Nightlife",u'no',True,u'full_bar',True,True,True,False,2.0,u'casual',u'average',True,True,False
368,8pm2QN9yHpqv7LOz84LrUw,Rabba Fine Foods,1840 Bloor Street W,Toronto,ON,M6R 2Z3,43.65413346850001,-79.4631618529,2.5,3,"Meat Shops, Convenience Stores, Specialty Food, Food, Grocery, Bakeries",,True,,True,,,,2.0,,,,,
369,X29BLACjBhOg_P2USv07dA,Trendee Chinese Cuisine,66 Overlea Boulevard,Toronto,ON,M4H 1C4,43.7082593775,-79.3425049654,3.5,6,"Chinese, Restaurants",,True,,,False,False,True,2.0,u'casual',u'average',True,True,True
370,js9rQZAlA5rr7oSBRRcCDw,Dimmi Bar & Trattoria,140 Cumberland St,Toronto,ON,M5R 1A8,43.6700945,-79.3926771,3.5,171,"Italian, Restaurants",u'no',True,u'full_bar',True,True,True,False,2.0,u'casual',u'average',True,True,False
371,g9Jw5G3ioagemIUhJ77Gvg,Mukimuki,384 College Street,Toronto,ON,M5T 1S7,43.657233000000005,-79.4054585,3.5,3,"Food, Restaurants, Cafes, Bakeries, Coffee & Tea",,,,,,,,,,,,,
372,_X5P9hY8MKvyTypCnv3Upg,CXBO Chocolates,193 Baldwin Street,Toronto,ON,M5T 1M1,43.6544824,-79.40141259999999,4.0,17,"Chocolatiers & Shops, Food, Specialty Food",,True,,True,,,,3.0,,,,,
373,ZtPzdwBq1dQaUIQnPKa-Qw,Fit For Life,2 Bloor Street W,Toronto,ON,M4W 3E2,43.670475,-79.387135,2.0,6,"Vegetarian, Restaurants",u'no',True,u'none',,False,False,False,2.0,u'casual',u'average',False,False,True
374,TM9Eani6kQmRV5RZaU7Tew,LCBO,879 Bloor Street W,Toronto,ON,M6G 1M4,43.6619825,-79.4251431,2.5,6,"Food, Shopping, Beer, Wine & Spirits",,True,,True,,,,2.0,,,,,
375,VAMOskgqojcYr7aK6zLg-g,Fatima's Cafe & Bistro,3108 Dundas Street West,Toronto,ON,M6P 2A1,43.6656181,-79.4735271,4.5,3,"Mediterranean, Restaurants, Modern European, Breakfast & Brunch",,True,u'full_bar',,True,False,,2.0,u'casual',,,True,True
376,IQAZn0i5mpj690wPLxcf0g,C Stores,393 King Street E,Toronto,ON,M5A 1L3,43.6524316,-79.3628798,4.5,3,"Delis, Convenience Stores, Food, Restaurants",,True,u'none',,False,,,1.0,,u'quiet',False,False,True
377,o37mk94tQ3UyQOOxDXQo8A,Grill Cottage,1468 Queen Street W,Toronto,ON,M6K 1M3,43.6406358682,-79.4367561489,4.5,9,"Falafel, Middle Eastern, Mediterranean, Restaurants, Diners",u'no',True,u'none',True,False,False,False,1.0,u'casual',u'average',True,True,True
378,bLIcSIyyAuLTIBIQKRyQUw,The Junction Grill,390 Pacific Avenue,Toronto,ON,M6P 2R1,43.665184499999995,-79.4686334,3.5,33,"Coffee & Tea, Sandwiches, Breakfast & Brunch, Desserts, Restaurants, Portuguese, Creperies, Food",u'no',True,u'none',True,False,True,False,1.0,u'casual',u'quiet',True,True,True
379,3OLyQAlAYAC0Amnr5aO81Q,Laura Secord,25 The West Mall,Toronto,ON,M9C 1B8,43.6097787,-79.560642,3.0,3,"Ice Cream & Frozen Yogurt, Specialty Food, Chocolatiers & Shops, Food, Desserts",,,,,,,,,,,,,
380,TLfBvo601IBNSkvymQnnZQ,Dominos,107 344 Front Street W,Toronto,ON,M5V,43.6433776,-79.3920218,1.5,14,"Restaurants, Pizza",'free',True,,True,False,True,True,2.0,'casual',u'average',True,True,True
381,vLWphV8xAVYflOn1gCU9Jw,Paramount Lebanese Kitchen,141 Spadina Avenue,Toronto,ON,M5V 1X3,43.6479963117,-79.3958004629,2.0,28,"Restaurants, Halal, Middle Eastern, Lebanese, Barbeque, Chicken Wings",,True,,,False,False,True,2.0,'casual',u'average',False,True,True
382,WbMZHFOOzjmQybWyHdfDxA,Aprilé Bambina,1054 Gerrard Street E,Toronto,ON,M4M 1Z8,43.6692354,-79.33609,4.0,33,"Comfort Food, Food, Gluten-Free, Breakfast & Brunch, Canadian (New), Restaurants, Italian, Beer, Wine & Spirits, Pizza",u'free',True,u'full_bar',True,True,True,True,2.0,u'casual',u'average',False,True,True
383,U1LB3sRMGTu_h7Sf9QdNoA,Le Neuf Café,9 Clarence Square,Toronto,ON,M5V,43.6447463,-79.39375509999999,3.5,139,"Restaurants, Food, Coffee & Tea, French",u'free',True,u'full_bar',True,False,True,False,2.0,u'casual',u'average',False,False,False
384,Xjcd_--LJYBlkdLSXhbR9g,Mami's Philippine Cuisine,4438 Sheppard Ave E,Toronto,ON,M1S 1V2,43.7881972,-79.2681072,3.5,10,"Fast Food, Filipino, Restaurants",,True,u'none',,False,,False,1.0,u'casual',u'average',False,True,True
385,Dvhg57y-SOcKty6WTG1XDw,Boil King,333 King Street W,Toronto,ON,M5V 1J5,43.646035,-79.3911778,4.0,20,"Cajun/Creole, Chicken Wings, Seafood, Bars, Nightlife, Restaurants",u'free',True,u'full_bar',True,True,True,False,2.0,'casual',u'average',True,True,True
386,X__txEx12Sc97btJc4L_fA,Crème,703 College Street,Toronto,ON,M6G 1C2,43.6550661,-79.4180463,4.0,14,"Coffee & Tea, Desserts, Food, Ice Cream & Frozen Yogurt",,,,,,True,,1.0,,,,,
387,m65oi2C7b1CJM7DaXbFi-g,Caffe Demetre,"3250 Dufferin Street, Unit 3",Toronto,ON,M6A 2T3,43.7200405,-79.4564275,3.5,56,"Restaurants, Cafes, Food, Desserts, Creperies",u'free',True,u'none',True,False,False,False,2.0,'casual',u'loud',False,True,True
388,UrV2WIaiFHRI8xxOZ00g0w,Parlor Foods & Co,333 King Street W,Toronto,ON,M5V,43.646150799999994,-79.3912498,4.0,57,"Canadian (New), Restaurants, Nightlife, Bars",'free',True,'full_bar',True,True,True,False,2.0,'casual','average',False,True,False
389,2ZZp5V8N0nHlsml01XBJUQ,JXY Dumpling Restaurant,"3250 Midland Avenue, Unit G",Toronto,ON,M1V,43.805176,-79.287318,3.5,40,"Restaurants, Chinese, Noodles",,True,,True,True,False,False,2.0,'casual',u'average',True,True,True
390,S_L3qebVFHSAvrGUFcFXpQ,Haroo,5935 Yonge Street,Toronto,ON,M2M 3V7,43.787427,-79.4170912,3.5,13,"Restaurants, Korean, Barbeque",,True,,,True,False,,2.0,'casual',,False,True,True
391,bY-4nSmbowNdAdrch0P9Tw,Corks Beer & Wine Bars,93 Laird Drive,Toronto,ON,M4G 3V1,43.7056909,-79.3616027,4.5,3,"Food, Beer, Wine & Spirits, Restaurants, Bars, Canadian (New), Nightlife",,False,,,False,,False,2.0,,u'average',,True,True
392,C75UPn41Uq2DJNCP74uTDw,Liberty Noodle,220 Yonge Street,Toronto,ON,M5B 2H1,43.657268200000004,-79.3814178,2.0,76,"Food Court, Japanese, Restaurants",u'no',True,'none',False,False,False,False,1.0,u'casual',u'very_loud',False,True,True
393,hJda5g5v_2rT3D-3mSf7cQ,Tequila Sun Rise Cantina & Grill,212 Adelaide Street W,Toronto,ON,M5H 1W7,43.648594700000004,-79.38745250000001,2.5,12,"Food, Specialty Food, Restaurants, Mexican",,False,u'full_bar',,True,False,False,2.0,u'casual',u'loud',True,True,False
394,DgcWHk1tCo3wEfcX0Ss8ag,Mario & Selina's No Frills,220 Royal York Road,Toronto,ON,M8V 2V7,43.6121861,-79.497828,2.5,10,"Pharmacy, Health & Medical, Grocery, Food",,False,,True,,,,2.0,,,,,
395,jWfmC3iXaPLBmrAFfK2QeA,Sakura Japanese Restaurant,4700 Keele Street,Toronto,ON,M3J 2S5,43.774239200000004,-79.5014316,2.0,16,"Restaurants, Japanese, Food",,True,u'none',,,False,,2.0,u'casual',,False,,
396,SA7NjDkzdaJxUjKvX9_gpA,Anondo Restaurant,2891 Danforth Avenue,Toronto,ON,M4C 1M3,43.689703200000004,-79.2942628,4.5,21,"Restaurants, Bangladeshi, Pakistani, Indian",u'no',True,u'none',True,False,False,False,1.0,u'casual',u'quiet',True,True,True
397,7yRLFyhvaY5Nck3iSKDmxQ,Edo,2901 Bayview Avenue,Toronto,ON,M2K 1E6,43.7690883,-79.38546550000001,3.5,11,"Restaurants, Japanese",,True,'full_bar',True,True,False,True,2.0,'casual',u'quiet',True,True,True
398,YJLMczqUMejz1jAmVGokqQ,M Wing Cafeteria at Sunnybrook,2075 Bayview Avenue,Toronto,ON,M4N 1J7,43.723116100000006,-79.3759458,2.0,6,"Food, Restaurants, Cafes",,True,,,False,,False,2.0,'casual',,False,True,True
399,Zsk6tnKWMqBFF33NSv5EIQ,Olympia Supermarket,1230 Dufferin St,Toronto,ON,M6H 4C1,43.6662956,-79.4382483,3.0,3,"Food, Grocery",,,,,,,,3.0,,,,,
400,IYikcVWEgp53jmkIeEI80g,Kin Kin Bakery & Bubble Tea,4841 Yonge Street,Toronto,ON,M2N 5X2,43.7625088,-79.4105316,3.5,7,"Coffee & Tea, Food, Bakeries, Patisserie/Cake Shop",,,,,,,,,,,,,
401,mdBaC30kgcWfAyF1O8anOw,Kim Bo Restaurant,358 Bathurst Street,Toronto,ON,M5T 2S6,43.6527094,-79.40631259999999,4.0,27,"Vietnamese, Restaurants",u'no',True,u'full_bar',,True,False,False,2.0,u'casual',u'quiet',True,True,True
402,im8sxT2V-drSvxP17qdb2A,Sicilian Sidewalk Cafe,712 College Street,Toronto,ON,M6G 1C3,43.6553573,-79.4185968,3.5,66,"Italian, Ice Cream & Frozen Yogurt, Restaurants, Food, Desserts",u'no',True,u'full_bar',True,False,True,False,2.0,u'casual',u'average',True,True,True
403,8MHEYBkI6vpyNEYiP3wvQQ,Tim Hortons,444 Yonge Street,Toronto,ON,M5B 2H4,43.6611610549,-79.3833049453,2.5,17,"Food, Coffee & Tea",'free',True,,True,,False,,1.0,,,,,
404,XZxJ4fG-4a3PP9VP5jvDWw,Mother India,1456 Queen Street W,Toronto,ON,M6K 1M2,43.6408144,-79.4362132,4.0,190,"Middle Eastern, Indian, Pakistani, Restaurants",u'no',True,u'full_bar',True,False,False,True,2.0,u'casual',u'quiet',False,True,True
405,OKcWglzK8JaFxfNGjq8yGw,Old Beijing BBQ,"4227 Sheppard Avenue E, Unit B1",Toronto,ON,M1S 5H5,43.7847607,-79.27782420000001,4.0,3,"Restaurants, Chinese",,True,,,,,,,,,,True,True
406,tGA6DQqySVxIs4AN9Op_aQ,Tim Hortons,334 Bloor Street W,Toronto,ON,M5S 1W9,43.6667303,-79.40410990000001,3.0,7,"Coffee & Tea, Cafes, Restaurants, Food",'free',True,,True,False,False,False,1.0,,,,,False
407,ZJLobjytBCP0RRxhbBkS8Q,Coco Rogue,2097 Yonge Street,Toronto,ON,M4S 2A8,43.7030511,-79.3974157,3.5,3,"Chocolatiers & Shops, Food, Specialty Food",,,,,,,,2.0,,,,,
408,as5StqV9pbDhUM0AYP_j9g,Kim Moon Bakery,438 Dundas St W,Toronto,ON,M5T 1G7,43.6535087,-79.3957156,3.5,27,"Food, Bakeries, Restaurants, Chinese",,True,,,False,False,,1.0,u'casual',u'quiet',True,True,True
409,rubQx8VlHZT4_IyMUs75YA,South St. Burger,2383 Yonge Street,Toronto,ON,M4P 2E7,43.7097968,-79.39859799999999,3.0,49,"Burgers, Restaurants",u'no',True,u'none',False,False,False,False,2.0,u'casual',u'average',True,True,True
410,ghWwqlRd1MaWz8hfgZ8Vsw,Hollywood Gelato,1640 Bayview Avenue,Toronto,ON,M4G 3B7,43.7067877213,-79.3757096827,4.0,101,"Food, Ice Cream & Frozen Yogurt",'no',True,,True,,,,2.0,,,,,
411,LfQrDmEbdzqQiBg6J-cJqw,Hazel's Diner,523 Mount Pleasant Road,Toronto,ON,M4S 2M4,43.702124100000006,-79.3874506,3.0,41,"Diners, Restaurants, Breakfast & Brunch",u'no',True,u'beer_and_wine',False,False,False,False,2.0,u'casual',u'average',True,True,True
412,y4GgOCMonFP5G1eZEdbcYg,Zante Bistro,1950 Gerrard Street E,Toronto,ON,M4E 2B1,43.680955053000005,-79.3104485795,4.0,17,"Greek, Mediterranean, Restaurants",u'free',True,u'full_bar',True,True,False,True,2.0,u'casual',u'quiet',True,True,True
413,fKmxQe2HPANmWkFiMMyF7w,Freshii,446 Spadina Road,Toronto,ON,M5P 2W4,43.6889719726,-79.4128546492,3.5,3,"Fast Food, Salad, Restaurants, Gluten-Free, Sandwiches",u'free',True,u'none',,False,True,,2.0,,,,,True
414,Y1jrsVAWK1bFC_s1CJmICw,Go Topoki,"5 Northtown Way, Unit 5",Toronto,ON,M2N 7A1,43.77488384350001,-79.4140006774,4.0,90,"Korean, Restaurants, Specialty Food, Desserts, Food",u'free',True,'beer_and_wine',False,False,False,False,2.0,'casual',u'average',False,True,True
415,23Dg53bT4WIJDK26WPR7vQ,Maru & Maru Sake Bar,5347 Yonge Street,Toronto,ON,M2N 7A1,43.7748988251,-79.41414802130001,3.5,18,"Food, Lounges, Beer, Wine & Spirits, Restaurants, Bars, Nightlife, Japanese",u'no',True,u'full_bar',,True,True,False,2.0,u'casual',u'average',True,True,False
416,dZWh_Iwv3EhZU-bKMiSQWA,Starbucks,978 Coxwell Avenue,Toronto,ON,M4C 3G5,43.695992730200004,-79.3290226889,4.0,7,"Coffee & Tea, Food",'free',True,,True,,True,,2.0,,,,,
417,50LSp1WnwMA3PMXXvXDj0Q,Pizzaiolo,865 York Mills Road,Toronto,ON,M3B 1Y6,43.754093100000006,-79.3495479,3.0,12,"Vegan, Restaurants, Gluten-Free, Pizza",'no',True,'none',True,True,True,True,3.0,'casual','average',True,True,True
418,-Tpo5r3kF_z4iilx8JXhvA,Basil Box,351 Yonge Street,Toronto,ON,M5B 1S1,43.6578986,-79.3812679,4.0,161,"Thai, Vietnamese, Restaurants, Gluten-Free",u'free',True,u'none',False,False,False,True,2.0,'casual',u'average',False,True,True
419,QO9cAenMqWXVraYPKT29PA,Tim Horton's,745 College St,Toronto,ON,M6G 1C5,43.6545682,-79.41976030000001,2.0,4,"Food, Coffee & Tea",'free',True,,True,,False,,1.0,,,,,
420,Exk-3-8qD_tSXTER85BN8Q,Chill Grill & Cafe,2183 Danforth Avenue,Toronto,ON,M4C 1K4,43.6862567,-79.3099942,4.5,6,"Halal, Bars, Hookah Bars, Restaurants, Bangladeshi, Indian, Nightlife",u'free',True,'none',True,True,True,False,2.0,'casual','average',True,True,True
421,8AAHDz9VIAvq8XbKJHrSrg,Per Se Mobile,,Toronto,ON,,43.653226000000004,-79.3831843,4.0,8,"Food, Food Stands, Food Trucks, Restaurants",,,,,,,,1.0,,,,,
422,bumAFxitMRHKAxZMijvUYg,Cuisine of India,"40 Magnetic Drive, Unit 64",Toronto,ON,M3J 2C4,43.7825218,-79.4749587,5.0,3,"Caterers, Event Planning & Services, Restaurants, Food, Indian",,,,,,,,,,,,,
423,doK6H6hraPaVM6X5QE6d7Q,Bluenose Lobster,111 Richmond Street W,Toronto,ON,M5H 3K6,43.65035220000001,-79.38379509999999,3.0,15,"Specialty Food, Shopping, Public Markets, Restaurants, Seafood Markets, Seafood, Food",,,,,,,,,,,,,
424,uAPMb111euz5jJF8_VeO2A,La Casita Chinese Eatery,405 Dundas Street W,Toronto,ON,M5T 1G6,43.6535911,-79.3948254,3.0,12,"Restaurants, Chinese",'no',True,,True,False,False,False,2.0,u'casual',u'quiet',True,True,True
425,IKYC89dNASgiPI6iIZj8Sw,Lan Sushi,"1500 Royal York Road, #35",Toronto,ON,M9P 3B6,43.6916836,-79.5319995,4.0,76,"Sushi Bars, Japanese, Restaurants",u'no',True,u'none',True,False,False,True,2.0,u'casual',u'quiet',False,False,True
426,SrnFpeMfMB40Rd6Z9N1lbg,Home Sweet Home,1 Whitehorse Road,Toronto,ON,M3J 3A7,43.7552182,-79.4685428,4.5,5,"Turkish, Mediterranean, Restaurants, Halal",u'free',True,u'none',True,True,False,True,1.0,,,True,,
427,gaSP19bI-CJZ-yRA4lvoUw,Sushi Island,571 College Street,Toronto,ON,M6G 1B2,43.6550859,-79.4128022,2.5,79,"Restaurants, Sushi Bars",u'no',True,u'beer_and_wine',True,True,False,True,2.0,u'casual',u'average',False,True,True
428,m-kyYtxJ-0J3yuGsAoAWtQ,The Wicket Bar,1671 Bloor Street W,Toronto,ON,M6P 1A6,43.6554790884,-79.4565081126,4.5,19,"Beer, Wine & Spirits, Sports Bars, Gastropubs, Restaurants, Bars, Food, Nightlife, Pubs, Venues & Event Spaces, Event Planning & Services",u'free',True,u'full_bar',True,False,False,False,2.0,u'casual',u'quiet',True,True,False
429,PLa2EQ60fVpHoxJC5UmQ-A,Costa Verde BBQ Chicken,2762 Keele Street,Toronto,ON,M3M 2G2,43.7271824,-79.4826137,3.5,11,"Barbeque, Portuguese, Restaurants",u'no',True,u'none',False,False,False,False,2.0,u'casual',u'average',True,True,True
430,5f13F6HZgLoARSdXECfLAw,Real Thailand Restaurant,570 Bloor Street W,Toronto,ON,M6G 1K1,43.665246200000006,-79.41188509999999,3.5,34,"Thai, Restaurants",u'no',True,'none',True,True,False,True,2.0,'casual',u'average',False,True,True
431,FqviVFdQac_dVwVMrNtGBA,The Innis Cafe,2 Sussex Avenue,Toronto,ON,M5S 1J5,43.665569899999994,-79.3996052,4.0,17,"Event Planning & Services, Restaurants, Cafes, Caterers",'free',True,u'none',True,False,True,False,1.0,u'casual','quiet',False,True,True
432,BmgfYQ3tpRKnT9H9WvjL_g,Littlefish,3080 Dundas Street  W,Toronto,ON,M6P,43.6655969,-79.4724424,3.5,66,"Restaurants, Food, Breakfast & Brunch, Coffee & Tea",u'no',True,u'none',True,False,False,False,2.0,u'casual',u'average',False,False,True
433,v0cl_1amwGypwFIS9-w8zw,Sobeys,207 Queens Quay W,Toronto,ON,M5J 1A7,43.6393257553,-79.3805263371,3.0,23,"Specialty Food, Grocery, Seafood Markets, Food",,True,,True,,,,2.0,,,,,
434,hbCb2z5xmLndisfU03_cCg,Freshly Squeezed,218 Yonge St,Toronto,ON,M5B 2H6,43.653224,-79.38032790000001,2.5,18,"Fruits & Veggies, Juice Bars & Smoothies, Specialty Food, Food",u'no',,,True,,,,2.0,,,,,
435,7sTYnCrftf2IG0-4x3CDeA,Reyna,111 Richmond Street W,Toronto,ON,M5H 3K6,43.65035220000001,-79.38379509999999,3.0,8,"Salad, Shopping, Public Markets, Mediterranean, Tapas/Small Plates, Spanish, Food, Restaurants, Nightlife, Cocktail Bars, Bars",,True,,,False,,False,2.0,,,,False,True
436,mHV6YRI_KWIUsVtI4qXJkg,China Town,1790 Jane Street,Toronto,ON,M9N 2T2,43.706407399999996,-79.50489559999998,2.0,4,"Restaurants, Chinese",,,,,,,,1.0,,,,,
437,xVHzCbDWCwmyavF5PgJRmg,Not Just Noodles,570 Yonge Street,Toronto,ON,M4Y 1Z3,43.6649906,-79.3847491,3.5,140,"Chinese, Restaurants",u'no',True,u'beer_and_wine',True,True,False,True,1.0,u'casual',u'average',False,True,True
438,XmdJO7O0hrtlLwAQdibm4Q,Atsa Matta For You? Trattoria,761 Dundas Street W,Toronto,ON,M6J 1T9,43.651993100000006,-79.4067119,4.5,5,"Pizza, Italian, Restaurants",,True,,,,False,,,,,,,
439,-7BCZH437U5FjmNJ26llkg,Mr Pide,800 Danforth Avenue,Toronto,ON,M4J 1L6,43.6797669,-79.3416051,4.5,69,"Pizza, Specialty Food, Restaurants, Ethnic Food, Turkish, Food",'free',True,u'none',True,True,False,True,1.0,u'casual',u'average',False,True,True
440,V4Ml-Urzen74dieQD-QeKw,Ciccio Sanwiccio,3220 Yonge Street,Toronto,ON,M4N 2L2,43.7287692,-79.40354549999999,4.0,15,"Restaurants, Italian, Sandwiches",'no',True,'none',True,False,True,,2.0,u'casual',u'quiet',True,False,True
441,rIBgjs2yPbUce6ecJMmH_w,Food Basics,1277 York Mills Road,Toronto,ON,M3A 1Z5,43.760647999999996,-79.32580390000001,2.5,5,"Food, Grocery",,True,,True,,,,2.0,,,,,
442,qGf8uO6fgStaTTbIchVUDw,Gossip Restaurant,50 Prince Edward Island Crescent,Toronto,ON,M6K 3C3,43.6309217,-79.4227667,3.5,8,"Restaurants, Seafood, Canadian (New), American (New)",,False,u'full_bar',,True,True,False,3.0,u'casual',u'average',True,True,False
443,yjlrIZ5FtsiYFIn3xiaNIw,Sushi Shop,2564 Yonge Street,Toronto,ON,M4P 2J3,43.7136804,-79.4001255,3.5,18,"Restaurants, Japanese, Sushi Bars",'no',True,u'none',True,False,False,True,2.0,u'casual',u'quiet',False,False,True
